stop_id,stop_code,stop_name,stop_desc,stop_lat,stop_lon,zone_id,stop_url,location_type,parent_station,stop_timezone,wheelchair_boarding
70,104505,Terminal Campina do Siqueira - 303 - Centenário / Campo Comprido,Terminal Campina do Siqueira - Campo Comprido,-25.435723602407,-49.306998364944,,,0,14506,,
270,104905,Terminal Carmo - 030 - Interbairros III,Terminal Carmo - 030 - Interbairros III (Sentido Oficinas).,-25.501341193047,-49.237596834988,,,0,14485,,
276,105606,Terminal Oficinas - 030 - Interbairros III,Terminal Oficinas - 030 - Interbairros III (Sentido Bairro Alto).,-25.451549913966,-49.214917373611,,,0,14481,,
299,105603,Terminal Oficinas - 030 - Interbairros III,Terminal Oficinas - 030 - Interbairros III (Sentido Carmo).,-25.451665262751,-49.215085830689,,,0,14481,,
308,104907,Terminal Carmo - 030 - Interbairros III,Terminal Carmo - 030 - Interbairros III (Sentido Capão Raso).,-25.501310905969,-49.237825154596,,,0,14485,,
568,190836,"R. Dep. José Hoffmann, 80 - Vista Alegre",150 - C. Música / V.Alegre (Ponto Final),-25.4086089,-49.29986,,,0,,,
581,110312,Praça Santos Andrade - 150 - C. da Música / Vista Alegre,Praça Santos Andrade 150 - C.Música / V. Alegre .,-25.428209687138,-49.265846178539,,,0,,,
597,190896,"R. Eng. Agro. Lauro Klas, 106 - Pilarzinho",160 - Jd. Mercês / Guanabara (Ponto Final),-25.398409680381,-49.293254561972,,,0,,,
616,150689,"Rua Rio de Janeiro, 1293 - Água Verde",Ponto Final 160 - Jd. Mercês / Guanabara (Sentido Jd. Mercês),-25.462635199023,-49.277920309193,,,0,,,
662,190600,"Rua São Francisco Xavier, 132 - Pilarzinho",166 - Vila Nori (Ponto Final) 167 - Fredolin Wolf (Sentido Nestor de Castro),-25.389211409326,-49.302757242328,,,0,,,
690,120607,"Rua José Ribeiro de Cristo, 1-119 - Pilarzinho",Ponto de Parada 170 - Bracatinga (Sentido Bracatinga) 188 - Madrugueiro Pilarzinho / Uberaba (Sentido Pilarzinho),-25.382745007551,-49.293668590178,,,0,,,
728,190638,"Rua Tomaz Tessari, 95 - Lamenha Pequena",168 - Raposo Tavares (Ponto Final),-25.357505925976,-49.333239863824,,,0,,,
775,120350,"R. Jorn. Geraldo Russe, 1-79 - Pilarzinho",169 - Jd. Kosmos (Ponto Final),-25.391328615541,-49.294544653373,,,0,,,
806,120317,"Rua Otalino Amado de Souza, 1 - Pilarzinho",170 - Bracatinga (Ponto Final) 188 - Madrugueiro Pilarzinho / Uberaba (Sentido Pilarzinho),-25.381670814559,-49.300806196924,,,0,,,
842,120342,"Rua Domingos Antônio Moro, 1267 - Pilarzinho",171 - Primavera (Ponto Final),-25.378955722683,-49.292597304299,,,0,,,
867,120948,"R. Rolfe Mertens, 42 - Pilarzinho",175 - Bom Retiro / PUC (Ponto Final -Bom Retiro),-25.399735159139,-49.278406019643,,,0,,,
920,150528,"Rua Eng. Niepce da Silva, 456 - Portão",180 - Água Verde / Abranches ( Ponto Final- Água Verde) 285 - Juvevê / Água Verde (Ponto Final - Água Verde),-25.470671896491,-49.289759750926,,,0,,,
941,120947,"Rua Vitório João Brunor, 607 - Abranches",180 - Água Verde / Abranches (Ponto final- Abranches),-25.3813991,-49.2721383,,,0,,,
968,120421,"Rua Ver. Vadislau Bugalski, 7622 - Taboão",181 - Mateus Leme (Ponto Final) (Sentido Pça. Tiradentes),-25.368047771658,-49.284976923349,,,0,,,
1133,108024,Estação Central,Estação Central - Capão Raso,-25.429994053636,-49.267617165582,,,0,41775,,
1150,108023,Estação Central,Estação Central - Santa Cândida,-25.429965307362,-49.267513649777,,,0,41824,,
1343,103303,Praça Osório - 207 -Cabral / Osório,Praça Osório - 207- Cabral / Osório (Sentido Cabral).,-25.433027310274,-49.276453985285,,,0,,,
1512,130038,"Rua Moreno Roseira Penteado de Almeida, 176 - Bacacheri",212 - Solar (Ponto Final),-25.400205459238,-49.217633565641,,,0,,,
1818,350029,"Rua Darwin, 421 - Atuba - Colombo - PR",222 - Vila Esperança (Ponto Final),-25.376220335744,-49.189323921426,,,0,,,
1899,120182,Rua Amadeu Natal - Santa Candida,226 - Abaeté (Ponto Final),-25.368544376435,-49.245159095701,,,0,,,
2039,109037,Estação Tubo Museu Oscar Niemeyer,Estação Tubo Museu Oscar Niemeyer - 505 - Boqueirão/Centro Cívico (Sentido Boqueirão),-25.410688881227,-49.26614184418,,,0,41885,,
2057,120442,"Estrada Guilherme Weigert, 1875 - Santa Candida",232 - Aliança (Sentido Santa Cândida) 236 - São Benedito (Sentido Santa Cândida),-25.357904825116,-49.233505882244,,,0,,,
2121,120455,"Rua Joaquim Marquês dos Santos, 152 - Santa Candida",236 - São Benedito (Ponto Final).,-25.355067363965,-49.24703181898,,,0,,,
2154,120123,"Rua Engenheiro Francisco Xavier Driesel, 250 - Cachoeira",242 - V.Leonice (Ponto Final).,-25.349967777215,-49.253763555156,,,0,,,
2231,120422,"Rua Joel Jensem Júnior, 1 - Barreirinha",260 - Mal. Hermes / Sta Efigênia (Ponto Final),-25.3764248,-49.2569988,,,0,,,
2256,180899,"Rua Jaime Veiga, 302 - Seminário",265 - Ahú / Los Angeles (Ponto Final - Los Angeles),-25.452143138887,-49.310076527613,,,0,,,
2277,120958,"Rua Santo Afonso de Ligório, 288 - Cabral",265 - Ahú / Los Angeles (Ponto Final - Ahú),-25.397905134464,-49.255102629465,,,0,,,
2329,120648,"Rua Carlota Straube de Araújo, 1417 - Boa Vista",266 - Estribo Ahú (Ponto Final),-25.385632115471,-49.248807433764,,,0,,,
2353,120923,"Rua José Serrato, 551 - Santa Candida",270 - Fernando de Noronha (Ponto Final),-25.377238923391,-49.234336192065,,,0,,,
2378,120708,"Rua Coronel Wallace Scott Murray, 968 - Santa Candida",271 - Laranjeira (Ponto Final),-25.374732596742,-49.236015398217,,,0,,,
2402,120148,"Rua Manoel Aristides de Farias, 166 - Barreirinha",244 - Jd. do Arroio (Sentido Terminal Barreirinha) 272 - Paineiras (Ponto Final),-25.368506490484,-49.252246950332,,,0,,,
2427,120784,"Rua Prof. Leonardo Cobe, 955 - Barreirinha",274 - Sta Gema (Ponto Final),-25.364966784085,-49.267952245369,,,0,,,
2452,120370,"Rua Pedro Spisla Filho, 336- Santa Candida",280 - Nossa Senhora de Nazeré (Ponto Final),-25.370463571361,-49.237615446067,,,0,,,
2465,130867,"Rua Menezes Dória, 1 - Cabral",285 - Juvevê / Água Verde (Ponto Final - Juvevê).,-25.4125021,-49.2463512,,,0,,,
2654,109043,Estação Tubo CIC Norte,Estação Tubo CIC Norte 304-Pinhais / C.Comprido (Ponto Final),-25.449625864526,-49.353856209822,,,0,41752,,
2676,109143,Terminal Pinhais - 304 - Pinhais / Campo Comprido,Terminal Pinhais -304 - Pinhais / Campo Comprido (Sentido Campo Comprido),-25.4401504,-49.1830858,,,0,14524,,
2725,109036,Estação Tubo Marechal Deodoro,Marechal Deodoro - 305 - Centenário (Sentido Centenário).,-25.429041275347,-49.26358168158,,,0,41862,,
2874,140436,"Rua Pedro Violani, 1828 - Cajuru",321 - Trindade (Ponto Final),-25.457267664351,-49.20136882209,,,0,,,
3244,110404,"Rua Maria Clara, 248 - Alto da Glória",360 - Novena(Ponto Final),-25.4210706,-49.2618388,,,0,,,
3280,180072,"Rua Benjamin Lins, 25 - Batel",Ponto de Parada 365-Jd Social-Batel (sentido jd social) 370 - Rua XV / Barigui (sentido Rua XV) 389 - Madrugueiro Tarumã / Augusta (Sentido Bairro Alto) 801 - Campina do Siqueira / Batel (Ponto Final) 860 - V. Sandra (Sentido Praça Rui Barbosa) 861 - Tramontina (Sentido Praça Rui Barbosa),-25.439296738155,-49.279780403705,,,0,,,
3300,130475,"Rua João Dalegrave, 326 - Bacacheri",365 - Jd Social / Batel (Ponto Final - Jardim Social),-25.416109882142,-49.224128549074,,,0,,,
3331,180936,"Avenida Vicente Machado, 1432 - Centro",366 - Itupava / Hospital Militar (Ponto Final) 378 - Inter Hospitais (Hospital Militar) 380 - Detran / V. Machado (Sentido Detran) 393 - C. Imbuia / Parque Barigui (sentido C. Imbuia),-25.438514457376,-49.290079925131,,,0,,,
3351,130868,"Rua Maria Ficinska, 382 - Tarumã",366 - Itupava / Hospital Militar (Ponto Final - Itupava),-25.431792794865,-49.232007139951,,,0,,,
3377,130899,"Rua Marechal Deodoro, 2834 - Centro",370 - Rua XV / Barigui (Ponto Final - Rua XV),-25.428141625064,-49.246864643517,,,0,,,
3559,110081,"Av. Silva Jardim, 5129 - Água Verde",265 - Ahú / Los Angeles (Sentido Ahú) 378 - Inter Hospitais (Hospital Pequeno Príncipe),-25.443193510851,-49.276324538643,,,0,,,
3623,130312,"Av. Nossa Senhora da Penha, 295 - Cristo Rei",Ponto de Parada 385 -Cristo Rei (ponto final),-25.438976914005,-49.234727130059,,,0,,,
3713,140942,"Rua Pedro Violani, 1 - Cajuru",387 - Palotinos (Ponto Final),-25.462408442295,-49.217555388955,,,0,,,
3755,130877,SITES - 594 - Menonitas,SITES 594 - Menonitas.,-25.4293412,-49.2497594,,,0,,,
3830,140584,"Rua Professor Paulo D'Assumpção, 1250 - Uberaba",461 - Sta.Bárbara (Ponto Final),-25.47430622144,-49.218318734359,,,0,,,
3882,140590,"Rua Artur José Nísio, 167 - Uberaba",462 - Petrópolis (Ponto Final),-25.480248049753,-49.20951537791,,,0,,,
3982,190908,"Rua Alcides Munhoz, 1235 - Mercês",464 - A.Munhoz / J. Botânico (Sentido J. Loureiro),-25.418882900725,-49.299594651521,,,0,,,
4035,140603,"Rua Doutor Ovande do Amaral, 81 - Jardim das Américas",465 - Erasto Gaertner (Ponto Final),-25.4533969,-49.2399949,,,0,,,
4061,140962,"Rua Evaristo F. F. da Costa, 407I - Centro Politécnico",466 - Estudantes (Ponto Final ),-25.4500028,-49.2312375,,,0,,,
4199,140722,"Rua Raul F. Leite, 1 - Guabirotuba",470 - Guabirotuba (Ponto Final),-25.466829342709,-49.235387012269,,,0,,,
4247,140818,"Rua Rosa Sahagof, 213 - Uberaba",471 - V. São Paulo (Ponto Final),-25.493366300218,-49.223020542957,,,0,,,
4416,140871,"Rua Tenente Antônio Miranda Marquês, 304 - Uberaba",475 - Canal Belém (Ponto Final),-25.502436767747,-49.214666327613,,,0,,,
4661,106106,Terminal Sítio Cercado - 548 - Osternack / Sítio Cercado,Terminal Sítio Cercado 548 - Osternack / Sítio Cercado X24 - Reforço Sambaqui,-25.534265877458,-49.267778424572,,,0,14492,,
4664,160756,"Rua Itaguaje, 224 - Ganchinho",535- Osternack / Boqueirão (Ponto FInal).,-25.5524106,-49.2543398,,,0,,,
4939,140032,"Av. Senador Salgado Filho, 1464 - Prado Velho",516 - Canal Belém/ Salgado Filho ( Ponto Final- Salgado Filho ) 471 - V. São Paulo (Sentido V. São Paulo) 472 - Uberaba (Sentido Uberaba),-25.469364306191,-49.239986679762,,,0,,,
5016,150808,"Rua Professor João Ducke Filho, 78 - Xaxim",522- Maringá (Ponto Final).,-25.5198196,-49.2691218,,,0,,,
5109,160152,"Rua Cinco de Maio Dia do Expedicionário, 102 - Alto Boqueirão",532 - Jd. Paranaense (Ponto Final).,-25.538863090624,-49.244614258896,,,0,,,
5151,160217,Rua Maria Marques de Camargo - Alto Boqueirão,533 - E.Veríssimo/Pantanal ( Ponto Final - Pantanal ).,-25.5363365,-49.2322354,,,0,,,
5346,106114,Terminal Sítio Cercado - 545 - Trabalhador - 540 - Boqueirão / Kraft,Terminal Sítio Cercado - 545 - Trabalhador (Sentido Fazendinha) 540 - Boqueirão / Kraft (Sentido Kraft),-25.534325908086,-49.26782333317,,,0,14492,,
5452,106108,Terminal Sítio Cercado - 545 - Trabalhador,Terminal Sítio Cercado 545 - Trabalhador (Sentido Boqueirão).,-25.534335152878,-49.268083819084,,,0,14492,,
5661,150628,"Rua Padre Manuel da Nóbrega, 1357 - Fanny",561-Guilhermina (Ponto Final),-25.4874457,-49.2772269,,,0,,,
5721,160767,"Rua Lupionopolis, 508 - Sítio Cercado",594 - Menonitas (Ponto Final).,-25.540147827542,-49.262902085914,,,0,,,
6369,105805,Terminal Portão - 615 - Uberlândia,Terminal Portão 615 - Uberlândia.,-25.4762902214,-49.292300398777,,,0,14499,,
6521,170302,"Rua Primo Lourenço Tosin, 1083- Novo Mundo",620- Sta Cruz (Ponto Final) 628- Carbomafra (Sentido Terminal Capão Raso).,-25.4957214,-49.3023882,,,0,,,
6560,180304,"Rua Deputado João Ribeiro Júnior, 135 - Cidade Industrial",622- Rondon (Ponto Final);,-25.4982307,-49.330714,,,0,,,
6587,170209,"Rua Jaime Rodrigues da Rocha, 1745 - Capão Raso",623 - Parque Industrial (Ponto Final).,-25.516274777827,-49.31131427057,,,0,,,
6616,150443,"Rua Laudelino Afonso da Rocha, 204 - Xaxim",624 - Vila São Pedro (Ponto Final),-25.520766441859,-49.270006893848,,,0,,,
6915,170258,"Rua Nita Hubel, 281 - Pinheirinho",623 - Parque Industrial ( Ponto Final - Quartel) 632 - Quartel General (Ponto Final).,-25.529320880788,-49.300780326879,,,0,,,
6940,150538,"Rua Miguel Raicoski Sobrinho, 120 - Pinheirinho",633 - Maria Angélica (Ponto Final).,-25.527413449076,-49.274282413353,,,0,,,
6985,160147,"Rua Inajá, 917 - Pinheirinho",636 - Rio Negro (Ponto Final),-25.545214049923,-49.29068372576,,,0,,,
7026,160265,"Rua Nova Esperança, 2021 - Sítio Cercado",638 - Pinheirinho (Ponto Final),-25.553431639973,-49.267471919049,,,0,,,
7047,160070,"Rua Rosa Cavichiolo Nichele, 122 - Umbara",639 - Futurama (Ponto Final),-25.567931628884,-49.283095910416,,,0,,,
7068,160345,"Rua Ângelo Rigolino, 46 - Tatuquara",640 - Palmeira (Ponto Final).,-25.550795544698,-49.299267929465,,,0,,,
7094,160383,"Rua Ângelo Gai, 467 - Umbara",641 - Luiz Nichele (Ponto Final).,-25.596179778773,-49.298075226984,,,0,,,
7122,160198,"Rua Helena Grodzki, 7810 - Umbara (Estrada do Ganchinho)",642 - Ganchinho (Sentido Ganchinho),-25.5988081,-49.261712,,,0,,,
7174,160292,"Rua Vergília Calixto, 606 - Umbará",643 - Umbará (Ponto Final - via C. Belo).,-25.6010162,-49.274194506152,,,0,,,
7235,170907,"Rua Júlio Pereira Sobrinho, 677 - Campo de Santana",646 - Pompéia/Janaina (Pompéia - Sentido Pinheirinho).,-25.587674416958,-49.324726446627,,,0,,,
7276,170401,Rua Prof. Manoel de Oliveira Franco Sobrinho 01 - Campo de Santana,646-Pompéia/Janaina (Ponto Final - Janaina).,-25.599446577056,-49.330826330688,,,0,,,
7332,170403,"Estrada da Caximba, 7966 - Caximba",Ponto de Parada 659 - Caximba / Olaria (Sentido Terminal Pinheirinho),-25.619355911266,-49.347205313492,,,0,,,
7482,170747,"Rua Antônia Molina Bela, 246- Cidade Industrial",Ponto de Parada 652- V. Verde (Ponto Final),-25.5276464,-49.3342498,,,0,,,
7515,180868,Rua Águas do Passaúna 20 - São Miguel,Ponto de Parada: 653-Sabará (Ponto Final),-25.500306607178,-49.354298115344,,,0,,,
7554,180864,Rua Águas do Passaúna 01 - São Miguel,Ponto de Parada 653 - Sabará (Sentido Sabará),-25.504861458582,-49.356103286508,,,0,,,
7657,170945,"Rua Roberto Osório de Almeida, 462 - Cidade Industrial",656 - Kamyr (Ponto Final).,-25.554310987493,-49.330238139881,,,0,,,
7853,150683,"Av. Pres. Wenceslau Braz, 948 - Parolin",661 - Lindóia (Ponto Final),-25.472328524725,-49.264626542258,,,0,,,
7875,150641,"Rua Santa Joana D'arc, 748 - Lindóia",662 - Dom Ático (Ponto Final).,-25.483147878396,-49.277405753373,,,0,,,
7897,150524,"Rua São Judas Tadeu, 447 - Capão Raso",663 - V. Cubas (Ponto Final).,-25.49819119772,-49.280062985879,,,0,,,
7919,150195,"Rua Sebastião Vieira da Rosa, 32 - Xaxim",665 - Vila Rex (Ponto Final).,-25.518613324699,-49.272125030688,,,0,,,
7941,150651,"Rua das Perdizes, 16 - Novo Mundo",666 - Novo Mundo (Ponto Final).,-25.492493694247,-49.281699020272,,,0,,,
8129,170114,"Rua Dep.Waldemiro Pedroso, 1993 - Novo Mundo",654- Campo Alegre (Sentido Terminal Capão Raso) 673 - Formosa (Ponto Final) 828 - C. Comprido/ C. Raso (Sentido Terminal Capão Raso) 831- Fazendinha/C. Raso (Sentido Terminal Capão Raso),-25.49273731085,-49.312507944775,,,0,,,
8239,170477,"Rua Teresa de Freitas Tavares, 648 - Campo de Santana",680 - Rurbana (Ponto Final).,-25.582966699075,-49.328965695315,,,0,,,
8279,170920,Estrada Engenheiro Blei - Cidade Industrial,681 - Dalagassa .,-25.55752258503,-49.322871717297,,,0,,,
8337,170962,Rua Ismael de Almeida - Campo de Santana,685 - Rio Bonito / CIC (Sentido CICl).,-25.5944396,-49.3448075,,,0,,,
8644,170549,"Rua Luís Leal da Rocha, 3 - Campo de Santana",680 - Rurbana (Sentido Terminal Pinheiriho) 690 - V. Juliana (sentido Terminal Pinheirinho),-25.576356643788,-49.32209731842,,,0,,,
8727,109030,Estação Tubo Guadalupe,Estação Tubo Guadalupe - Sentido Santa Cândida,-25.433655433387,-49.263477908598,,,0,25427,,
8871,180500,"Rua do Semeador, 556- Cidade Industrial",711- Itatiaia (Ponto Final),-25.470727687224,-49.351928334359,,,0,,,
8944,180442,"Rua Alcir Martins Bastos, 1035 - Fazendinha",Ponto de Parada: 713- Sta Amélia (Ponto Final) 789 - Mad. Caiuá (Sentido Praça Rui Barbosa),-25.4911614211,-49.328305760119,,,0,,,
8967,180434,"Rua V, 176 - Cidade Industrial",714 - Vila Marisa (Ponto Final ).,-25.501582376203,-49.345355293254,,,0,,,
8983,105002,Terminal Caiuá - 714 - Vila Marisa / 721 - Mário Jorge,Terminal Caiuá 714 - Vila Marisa (Sentido Vila Marisa) 721 - Rua Mário Jorge (Sentido Rua Mário Jorge),-25.483741908752,-49.350296164418,,,0,14515,,
8991,180333,"Rua Jan Frederik de Jager, 220 - Cidade Industrial",714 - Vila Marisa (Sentido Caiuá) 716 - Frigorífico ( Moradias Bela Vista),-25.490052604285,-49.358347828836,,,0,,,
9031,105003,Terminal Caiuá - 719 - Fazendinha / Caiuá / Frigorífico - 714 - Vila Marisa,Terminal Caiuá 716 - Frigorífico 719 - Fazendinha / Caiuá / Frigorífico 714 - Vila Marisa.,-25.483793078751,-49.350222355819,,,0,14515,,
9119,180816,"Rua Adalberto Gilardi da Silva, 1 - Santa Quitéria",760 - Sta. Quitéria (Ponto Final) 779 - Vila Velha / Buriti (Ponto Final),-25.465207573167,-49.319647039287,,,0,,,
9182,180777,"Rua Nicolau Latchoc, 94 - Campo Comprido",761- V. Izabel (Ponto Final),-25.468565439436,-49.325582588326,,,0,,,
9206,180621,"Rua Alfredo José Pinto, 1048 - Fazendinha",762- V. Rosinha (Ponto Final),-25.476784628881,-49.326162198777,,,0,,,
9270,180779,"Rua Mário Zanlorenzi, 580 - Campo Comprido",776 - Carmela Dutra (Ponto Final).,-25.459322199956,-49.328926195701,,,0,,,
9385,180989,"Av. Pres. Arthur da S. Bernardes, 631 - Portão","Tubo Santa Quitéria (Av. Pres. Arthur da S. Bernardes, 631 ) 779 - Vila Velha / Buriti (Sentido Buriti)",-25.459154827989,-49.302285422073,,,0,14415,,
9397,180990,"Av. Pres. Arthur da S. Bernardes, 631 - Portão","Tubo Santa Quitéria (Av. Pres. Arthur da S. Bernardes, 631) 779 - Vila Velha / Buriti (Sentido Vila Velha)",-25.458990216184,-49.30234107791,,,0,14415,,
9412,180778,"Rua Aírton Greifo, 138- Campo Comprido",777 - V. Velha (Ponto Final) 779 - V. Velha / Buriti (Ponto Final - Vila Velha),-25.462360734113,-49.337683320867,,,0,,,
9578,190137,"Rua Magdalena Chagas Lima, 368- São Braz",811 - Saturno (Ponto Final),-25.4207379,-49.3459486,,,0,,,
9620,190069,"Rua Hermenegildo Luca, 4124 - São Braz",812 - Montana (Ponto Final) 876 - Savóia (Ponto Final).,-25.409245409007,-49.36080217424,,,0,,,
9761,180259,"Rua Soldado Agnaldo Gonçalves, 201 - Cidade Industrial",Ponto de Parada 823 - Augusta (Sentido Terminal Campo Comprido),-25.46315227081,-49.353401139253,,,0,,,
9844,180376,"Rua Ângelo Marqueto, 2318 - Cidade Industrial",825 - V.Marqueto (Ponto Final),-25.478555182551,-49.375604717791,,,0,,,
9899,105008,Terminal Caiuá - 826 - Campo Comprido / CIC - 732 Campo Comprido / Caiuá,Terminal Caiuá 732 Campo Comprido / Caiuá (Sentido Campo Comprido) 826 - Campo Comprido / CIC (Sentido Campo Comprido),-25.483566923709,-49.350309871164,,,0,14515,,
10005,190358,"Rua Casemiro Augusto Rodacki, 233 - Cidade Industrial",829 - Univ. Positivo (Sentido Circular e Ponto Final),-25.4444935,-49.3589673,,,0,,,
10070,180567,"Rua Elzira Alves Lourenço, 25 - Cidade Industrial",860 - V. Sandra (Ponto Final),-25.464068664938,-49.340141704299,,,0,,,
10120,180658,"Rua Luís Casagrande, 363 - Cidade Industrial",861 - Tramontina (Ponto Final).,-25.463081021666,-49.349083560119,,,0,,,
10151,180578,"Rua Deputado Nilson Ribas, 597 - Seminário",865 - Jd. Esplanada (Ponto Final).,-25.444502,-49.3112028,,,0,,,
10320,101004,Praça Tiradentes - 876 - Savóia,Praça Tiradentes 876 - Savóia .,-25.430119444658,-49.272456604299,,,0,,,
10454,190324,"Rua José Culpi, 693 - Butiatuvinha",912 - José Culpi (Ponto Final).,-25.3961654,-49.3583409,,,0,,,
10484,190399,"Estrada Ângelo Pianaro, 1804 - Butiatuvinha",913 - Butiatuvinha (Ponto Final),-25.399340893476,-49.365383687732,,,0,,,
10562,190451,"Rua Vanda Wolf, 1575 - Santa Felicidade",916 - Pinheiros (Ponto Final) 917 - Jd. Ipê (Sentido Jardim Ipê) 989 - Madrugueiro Santa Felicidade (Sentido Santa Felicidade),-25.372273111417,-49.330314811045,,,0,,,
10588,190450,"Rua Doutor Eugênio Bertolli, 28 - Santa Felicidade",917 - Jardim Ipê (Ponto Final),-25.368758499469,-49.326577945404,,,0,,,
10618,190344,"Rua José Bepe Luca, 1 - São Braz",918 - Veneza (Ponto Final).,-25.421282806179,-49.342808454457,,,0,,,
10811,190539,"Rua Itália Giampoli Amatuzzi, 4 - Vista Alegre",967 - Julio Graf (Ponto Final),-25.399082273762,-49.298941101852,,,0,,,
10840,190526,Rua José Casagrande 802 Curitiba - PR,Ponto de Parada 967 - Julio Graf (Sentido Pça. Tiradentes) 968 - Especial Trombini (Ponto Final),-25.409815845474,-49.303871184061,,,0,,,
10898,110158,"Rua Visconde de Nácar, 1224 - Centro",Ponto de Parada 385 - Cristo Rei (Sentido Praça Rui Barbosa) 989 - Madrugueiro Santa Felicidade (Sentido Praça Rui Barbosa),-25.435052433136,-49.275875855623,,,0,,,
10899,110094,"Av. Sete de Setembro, 2787 - Rebouças",Ponto de Parada 002 - Circular Centro (Sentido Anti-horário) 979 - Linha Turismo (Sentido Teatro Paiol) E64 - Aeroporto Executivo (Sentido Aeroporto),-25.437524669888,-49.266091491988,,,0,,,
10906,120573,"Rua Mateus Leme, 2081 - São Francisco (Bosque do Papa)",Ponto de Parada 979 - Linha Turismo (Sentido Bosque Alemão),-25.409001851992,-49.271733350699,,,0,,,
10908,120543,"Rua Victor Benato, 283 - Pilarzinho (Universidade Livre do Meio Ambiente)",Ponto de Parada 979 - Linha Turismo (Sentido Parque São Lourenço),-25.398618570942,-49.282371829869,,,0,,,
14298,140763,"Rua Zacarias Alves de Souza,600 - Uberaba",188 - Madrugueiro Pilarzinho / Uberaba (Sentido Pilarzinho) 338 - Centenário / Hauer (Sentido Hauer) 468 - Jd. Centauro (Sentido Praça Rui Barbosa) 474 - Jd. Itibere (Sentido Praça Rui Barbosa) X14 - Reforço Hauer (Ponto Final),-25.492461684207,-49.20777155124,,,0,,,
14326,109059,Estação Tubo PUC,Estação Tubo PUC - Sentido Aeroporto/ Rodoferroviária,-25.453395779718,-49.252650888325,,,0,26033,,
14404,140256,"Rua Vicente de Carvalho, 230 - Cajuru",Z03 - Vic. de Carvalho/C. da Imbuia (Ponto Final) 050-Interbairros V (Sentido Terminal Oficinas),-25.452238019421,-49.224005114418,,,0,,,
14415,null,Estação Tubo Santa Quitéria,,-25.459127575972,-49.30243629633,,,1,,,
14432,null,Estação Tubo Mercês,,-25.422391025401,-49.291634507726,,,1,,,
14434,null,Estação Tubo Centro Cívico - Palácio Iguaçú,,-25.415392265191,-49.267910368989,,,1,,,
14470,null,Terminal Santa Cândida,,-25.377073433216,-49.224360178147,,,1,,,
14471,null,Terminal Boa Vista,,-25.393294577886,-49.24105091786,,,1,,,
14474,null,Terminal Cabral,,-25.4066589,-49.2527914,,,1,,,
14476,null,Terminal Bairro Alto,,-25.413046936459,-49.205480354393,,,1,,,
14478,null,Terminal Capão da Imbuia,,-25.4399803,-49.2218581,,,1,,,
14481,null,Terminal Oficinas,,-25.451504600604,-49.214964225725,,,1,,,
14483,null,Terminal Centenário,,-25.469004454165,-49.208112189549,,,1,,,
14485,null,Terminal Carmo,,-25.501302655486,-49.237642198811,,,1,,,
14487,null,Terminal Hauer,,-25.481926661231,-49.24699894184,,,1,,,
14489,null,Terminal Boqueirão,,-25.516774778393,-49.230441030758,,,1,,,
14492,null,Terminal Sítio Cercado,,-25.534177405178,-49.267780491401,,,1,,,
14494,null,Terminal Pinheirinho,,-25.512487353173,-49.295048108598,,,1,,,
14497,null,Terminal Capão Raso,,-25.4920013,-49.2936865,,,1,,,
14499,null,Terminal Portão,,-25.4763353,-49.2926288,,,1,,,
14503,null,Terminal CIC,,-25.511654050551,-49.324538920807,,,1,,,
14506,null,Terminal Campina do Siqueira,,-25.436086,-49.3075959,,,1,,,
14508,null,Terminal Campo Comprido,,-25.44161403436,-49.346739524467,,,1,,,
14510,null,Terminal Santa Felicidade,,-25.400933329298,-49.330278803041,,,1,,,
14512,null,Terminal Fazendinha,,-25.477340112433,-49.327037532472,,,1,,,
14515,null,Terminal Caiuá,,-25.483723977821,-49.350160437586,,,1,,,
14517,null,Terminal Barreirinha,,-25.377432367018,-49.262446388955,,,1,,,
14524,null,Terminal Pinhais,,-25.440034804924,-49.182830990144,,,1,,,
14531,null,Terminal Angélica,Ponto de Parada H12 - Araucária / Portão,-25.53460012311,-49.361354674061,,,1,,,
14541,null,Terminal Roça Grande,B74 - Ctba / Jd. Cezar Augusto,-25.345602216359,-49.220113483824,,,1,,,
14553,null,Estação Tubo Praça Eufrásio Correia,Praça Eufrásio Correia - Santa Cândida / Centenário / Pinhais,-25.437655220405,-49.266631957104,,,1,,,
14555,null,Estação Tubo Paiol,,-25.448163570983,-49.258018546182,,,1,,,
14560,null,Estação Tubo Centro Cívico - Assembléia,,-25.415623625647,-49.266385533164,,,1,,,
14562,null,Estação Tubo Prefeitura,,-25.417883882142,-49.268461562942,,,1,,,
14564,null,Estação Tubo Prefeitura,,-25.417836229767,-49.268692016949,,,1,,,
14567,null,Estação Tubo Comendador Fontana,Estação Tubo Comendador Fontana.,-25.419799270208,-49.268911958088,,,1,,,
14570,null,Estação Tubo Comendador Fontana,Estação Tubo Comendador Fontana.,-25.419752884145,-49.269125193705,,,1,,,
14581,null,Estação Tubo São Pedro,,-25.506794751964,-49.284266263595,,,1,,,
14586,null,Estação Tubo Xaxim,,-25.496650022191,-49.276237070909,,,1,,,
14590,null,Estação Tubo Santa Bernadethe,,-25.485227248942,-49.266811788431,,,1,,,
14594,null,Estação Tubo Fanny,Estação Tubo Fanny 560 - Alferes Poli 550 - Ligeirão Pinheirinho / C. Gomes B42 - Maracanã / L. Verde,-25.474933728298,-49.258503646008,,,1,,,
14598,null,Estação Tubo Marechal Floriano,,-25.469102285196,-49.254012287013,,,1,,,
14600,null,Estação Tubo Marechal Floriano,,-25.469230626999,-49.253812462441,,,1,,,
14604,null,Estação Tubo Detran,,-25.430373087727,-49.211228442189,,,1,,,
14606,null,Estação Tubo Colégio Militar,,-25.428899094657,-49.225104850528,,,1,,,
25378,108002,Estação Tubo Joaquim Nabuco,Estação Tubo Joaquim Nabuco - Capão Raso,-25.380727998652,-49.228829736389,,,0,41809,,
25380,108006,Estação Tubo Antônio Lago,Estação Tubo Antônio Lago - Capão Raso,-25.388780237354,-49.236226186568,,,0,41813,,
25383,108012,Estação Tubo Antônio Cavalheiros,Estação Tubo Antônio Cavalheiros - Capão Raso,-25.403501586783,-49.249864792933,,,0,41816,,
25384,108014,Estação Tubo Bom Jesus,Estação Tubo Bom Jesus - Capão Raso,-25.410093244956,-49.255935977351,,,0,41818,,
25385,108016,Estação Tubo Moisés Marcondes,Estação Tubo Moisés Marcondes - Capão Raso,-25.413370782272,-49.258952961887,,,0,41820,,
25386,109146,Estação Tubo Constantino Marochi,Estação Tubo Constantino Marochi - Sentido Terminal Capão Raso,-25.416066058281,-49.26150706627,,,0,41772,,
25387,108020,Estação Tubo Maria Clara,Estação Tubo Maria Clara - Capão Raso,-25.419901596561,-49.265101084072,,,0,41823,,
25388,108022,Estação Tubo Passeio Público,Estação Tubo Passeio Público - Capão Raso,-25.423876886501,-49.268388973076,,,0,41774,,
25389,108025,Estação Tubo Praça Eufrasio Correia,Estação Tubo Praça Eufrasio Correia - Campo Comprido / Pç Rui Barbosa / Capão Raso,-25.43759253,-49.26672726,,,0,26124,,
25390,108028,Estação Tubo Alferes Poli / Catedral da Fé,Estação Tubo Alferes Poli / Catedral da Fé - Capão Raso,-25.439473900675,-49.271566553349,,,0,41826,,
25391,108032,Estação Tubo Praça Oswaldo Cruz,Estação Tubo Praça Oswaldo Cruz - Pinheirinho / Capão Raso,-25.441600910618,-49.277095755077,,,0,26093,,
25392,108034,Estação Tubo Coronel Dulcídio,Estação Tubo Coronel Dulcídio - Pinheirinho / Capão Raso,-25.443372665226,-49.281736143522,,,0,26095,,
25393,108036,Estação Tubo Bento Viana,Estação Tubo Bento Viana - Pinheirinho / Capão Raso,-25.4448158457,-49.285595177088,,,0,26099,,
25394,108038,Estação Tubo Silva Jardim,Estação Tubo Silva Jardim - Pinheirinho / Capão Raso,-25.448330003815,-49.287868593254,,,0,26106,,
25395,108040,Estação Tubo Petit Carneiro,Estação Tubo Petit Carneiro - Pinheirinho / Capão Raso,-25.452287022347,-49.287927521283,,,0,26108,,
25396,108042,Estação Tubo Dom Pedro I,Estação Tubo Dom Pedro I - Pinheirinho/ Capão Raso,-25.45693318,-49.28858994,,,0,26094,,
25398,108046,Estação Tubo Vital Brasil,Estação Tubo Vital Brasil - Pinheirinho / Capão Raso,-25.464606514037,-49.291301908896,,,0,26121,,
25399,108048,Estação Tubo Morretes,Estação Tubo Morretes - Pinheirinho / Capão Raso,-25.467604592786,-49.29319991057,,,0,26118,,
25400,108050,Estação Tubo Carlos Dietzsch,Estação Tubo Carlos Dietzsch - Pinheirinho / Capão Raso,-25.472633207004,-49.294487371045,,,0,26113,,
25402,108052,Estação Tubo Itajubá,Estação Tubo Itajubá - Pinheirinho / Capão Raso,-25.4810211,-49.29261829,,,0,26120,,
25403,108054,Estação Tubo Hospital do Trabalhador,Estação Tubo Hospital do Trabalhador - Pinheirinho / Capão Raso,-25.484383755499,-49.293780854121,,,0,26112,,
25415,109024,Estação Tubo Detran - 307- Bairro Alto / Sta Felicidade - 022 - Inter 2 (Horário),Estação Tubo Detran - Capão da Imbuia / Bairro Alto,-25.43039817484,-49.211208067791,,,0,14604,,
25416,108195,Estação Tubo São Grato,Estação Tubo São Grato - Centenário,-25.436570794314,-49.328525097317,,,0,41754,,
25417,108153,Estação Tubo Profª. Maria Aguiar Teixeira,Estação Tubo Profª. Maria Aguiar Teixeira - Pinhais / Centenário,-25.438885212335,-49.22626429576,,,0,25420,,
25419,108207,Estação Santa Bernadethe,Estação Santa Bernadethe 550 - Ligeirão Pinheirinho / C. Gomes (sentido Pça. Carlos Gomes) 616 - Portão / Sta Bernadete / L. Verde (sentido Portão),-25.485232091382,-49.266797036282,,,0,14590,,
25420,null,Estação Tubo Profª. Maria Aguiar Teixeira,,-25.438896916717,-49.226269901938,,,1,,,
25423,108092,Estação Tubo Cel. Luiz José dos Santos,Estação Tubo Cel. Luiz José dos Santos 502 - Circular Sul (Sentido Boqueirão) 503 - Boqueirão (Sentido Boqueirão),-25.496209215173,-49.240180131692,,,0,43339,,
25424,null,Estação Tubo Cel. Luiz José dos Santos,Estação Tubo Cel. Luiz José dos Santos - Hauer / Praça Carlos Gomes / Portão,-25.49518331256,-49.240565699237,,,1,,,
25426,null,Estação Tubo Praça do Expedicionário,Estação Tubo Praça do Expedicionário.,-25.428859950047,-49.258168966449,,,1,,,
25427,null,Estação Tubo Guadalupe,Estação Tubo Guadalupe.,-25.433658070409,-49.263464462755,,,1,,,
25428,102025,Praça Rui Barbosa - 365 - Jd Social/Batel / 370-Rua XV / Barigui,Ponto de Parada 365 - Jardim Social / Batel (Sentido Jardim Social) 370 - Rua XV / Barigui (sentido Rua XV) 389 - Madrugueiro Tarumã / Augusta (Sentido Bairro Alto),-25.436444418977,-49.272614629083,,,0,,,
25431,120581,"Rua José Merhy, 1181 - Boa Vista",Ponto de Parada 224 - Cassiopéia (Sentido Terminal Boa Vista),-25.391113185867,-49.241248341652,,,0,,,
25441,108116,Estação Tubo Lindóia,Estação Tubo Lindóia - Hauer,-25.474024450489,-49.269980691632,,,0,47577,,
25442,108115,Estação Tubo Lindóia,Estação Tubo Lindóia - Portão,-25.47377504133,-49.270055793485,,,0,47576,,
25443,108118,Estação Tubo Antero de Quental,Estação Tubo Antero de Quental - Hauer,-25.475016633746,-49.274071283898,,,0,47565,,
25445,108117,Estação Tubo Antero de Quental,Estação Tubo Antero de Quental - Portão,-25.474764805215,-49.274147726855,,,0,47566,,
25447,108119,Estação Tubo Dom Ático,Estação Tubo Dom Ático - Portão,-25.476243684941,-49.28020761933,,,0,47578,,
25448,108120,Estação Tubo Dom Ático,Estação Tubo Dom Ático - Hauer,-25.476504590611,-49.280131176374,,,0,47579,,
25454,108121,Estação Tubo Wenceslau Braz,Estação Tubo Wenceslau Braz - Portão,-25.477418664015,-49.285011790952,,,0,47554,,
25456,108122,Estação Tubo Wenceslau Braz,Estação Tubo Wenceslau Braz - Hauer,-25.477724967853,-49.285127796492,,,0,47555,,
25461,108113,Estação Tubo Marumbi,Estação Tubo Marumbi - Portão,-25.472415685599,-49.264478810391,,,0,47552,,
25462,108114,Estação Tubo Marumbi,Estação Tubo Marumbi - Hauer,-25.472663886841,-49.264411755165,,,0,47553,,
25463,108211,Estação Marechal Floriano,Estação Marechal Floriano B42 - Maracanã / Linha Verde (sentido Linha Verde) 550 - Ligeirão Pinheirinho / C. Gomes (sentido Pinheirinho) 602 - Circular Sul (AH) (sentido Portão) 605 - Ctba / Faz. Rio Grande (sentido Fazenda Rio Grande),-25.469144829675,-49.254036970696,,,0,14598,,
25468,108085,Estação Tubo Pádua Fleury,Estação Tubo Pádua Fleury 503 - Boqueirão (sentido Praça Carlos Gomes) 602 - Circular Sul (AH) (sentido Portão),-25.475889851024,-49.249993093571,,,0,43347,,
25471,108077,Estação Tubo TRE,Estação Tubo TRE 500-Ligeirão Boqueirão (sentido Boqueirão) 503-Boqueirão (sentido Boqueirão),-25.459149308599,-49.258267608183,,,0,43353,,
25472,108078,Estação Tubo TRE,Estação Tubo TRE 500-Ligeirão Boqueirão (sentido Praça Carlos Gomes) 503-Boqueirão (sentido Praça Carlos Gomes),-25.458132393893,-49.25865652849,,,0,43354,,
25473,108086,Estação Tubo Pádua Fleury,Estação Tubo Pádua Fleury 502 - Circular Sul (H) - (sentido Boqueirão) 503 - Boqueirão (sentido Boqueirão),-25.476966162099,-49.249580033383,,,0,43348,,
25474,105503,Terminal Hauer - 602 - Circular Sul (AH),Terminal Hauer 602 - Circular Sul (AH) (sentido Portão),-25.482014666271,-49.246866084895,,,0,14487,,
25478,108089,Estação Tubo Hipólito da Costa,Estação Tubo Hipólito da Costa 503 - Boqueirão (sentido Praça Carlos Gomes) 602 - Circular Sul (AH) (sentido Hauer),-25.489675972353,-49.243255384526,,,0,43344,,
25479,108090,Estação Tubo Hipólito da Costa,Estação Tubo Hipólito da Costa 502 - Circular Sul (H) (sentido Boqueirão) 503 - Boqueirão (sentido Boqueirão),-25.490730975301,-49.242867805323,,,0,43343,,
25481,108091,Estação Tubo Cel. Luiz José dos Santos,Estação Tubo Cel. Luiz José dos Santos 503 - Boqueirão (Sentido Praça Carlos Gomes) 602 - Circular Sul (AH) (Sentido Hauer),-25.495178470521,-49.240567811093,,,0,25424,,
25489,108095,Estação Tubo Antônio de Paula,Estação Tubo Antônio de Paula 503 - Boqueirão (sentido Praça Carlos Gomes) 602 - Circular Sul (AH) (sentido Hauer),-25.511499875429,-49.232588239273,,,0,43342,,
25492,108112,Estação Tubo Parque Iguaçú,Estação Tubo Parque Iguaçú - Boqueirão,-25.521034596928,-49.227946676574,,,0,41803,,
25493,108111,Estação Tubo Parque Iguaçú,Estação Tubo Parque Iguaçú - Sítio Cercado,-25.521091478625,-49.228039212784,,,0,41804,,
25497,108107,Estação Tubo Araça,Estação Tubo Araça - Sítio Cercado,-25.526481804713,-49.236115344128,,,0,43327,,
25498,108074,Estação Tubo Conselheiro Dantas,Estação Tubo Conselheiro Dantas 503 - Boqueirão (sentido Praça Carlos Gomes),-25.451454190191,-49.261899319189,,,0,41785,,
25499,108108,Estação Tubo Araça,Estação Tubo Araça - Boqueirão,-25.526944703107,-49.237278081736,,,0,43326,,
25500,108072,Estação Tubo Almirante Gonçalves,Estação Tubo Almirante Gonçalves 503 - Boqueirão (sentido Boqueirão),-25.448495803122,-49.263417449491,,,0,26052,,
25501,108105,Estação Tubo Nova Europa,Estação Tubo Nova Europa - Sítio Cercado,-25.527600018954,-49.240774341187,,,0,43324,,
25502,108071,Estação Tubo Almirante Gonçalves,Estação Tubo Almirante Gonçalves 503 - Boqueirão (sentido Praça Carlos Gomes),-25.447431347258,-49.263825145262,,,0,26051,,
25507,108070,Estação Tubo Getúlio Vargas,Estação Tubo Getúlio Vargas 503 - Boqueirão (sentido Boqueirão),-25.44468781723,-49.265304383534,,,0,41783,,
25509,108069,Estação Tubo Getúlio Vargas,Estação Tubo Getúlio Vargas 503 - Boqueirão (sentido Praça Carlos Gomes),-25.443625749759,-49.26570537378,,,0,41784,,
25510,108067,Estação Tubo UTFPR,Estação Tubo UTFPR 500 - Ligeirão Boqueirão (sentido Boqueirão) 503 - Boqueirão (sentido Boqueirão),-25.438864496385,-49.268206533687,,,0,26044,,
25511,108100,Estação Tubo Érico Veríssimo,Estação Tubo Érico Veríssimo - Boqueirão,-25.531236563547,-49.255340077243,,,0,41838,,
25512,108099,Estação Tubo Érico Veríssimo,Estação Tubo Érico Veríssimo - Sítio Cercado,-25.531111918418,-49.255624391398,,,0,41777,,
25515,108214,Estação Tubo UTFPR - Desembarque,Estação Tubo UTFPR - Desembarque 550 - Pinheirinho / C. Gomes (sentido Praça Carlos Gomes),-25.438807575773,-49.268115338581,,,0,,,
25521,108033,Estação Tubo Coronel Dulcídio,Estação Tubo Coronel Dulcídio - Santa Cândida / Praça Rui Barbosa,-25.44298821663,-49.280469406152,,,0,26096,,
25523,108043,Estação Tubo Sebastião Paraná,Estação Tubo Sebastião Paraná - Santa Cândida / Praça Rui Barbosa,-25.461204927891,-49.289782206746,,,0,26107,,
25525,108055,Estação Tubo Herculano de Araújo,Estação Tubo Herculano de Araújo - Pinheirinho / Capão Raso,-25.487814027983,-49.29433070633,,,0,26110,,
25526,108057,Estação Tubo Pedro Gusso,Estação Tubo Pedro Gusso - Pinheirinho,-25.49551353773,-49.294531722719,,,0,26102,,
25527,108059,Estação Tubo José C.Bettega,Estação Tubo José C. Bettega - Pinheirinho,-25.499463087151,-49.296060725166,,,0,26098,,
25528,108061,Estação Tubo Santa Regina,Estação Tubo Santa Regina - Pinheirinho,-25.503476168282,-49.296020771793,,,0,26091,,
25529,108063,Estação Tubo Ouro Verde,Estação Tubo Ouro Verde - Pinheirinho,-25.507655816928,-49.295913842957,,,0,26046,,
25532,108126,Estação Tubo Sagrado Coração,Estação Tubo Sagrado Coração - Pinheirinho,-25.527906194845,-49.291356779895,,,0,41829,,
25533,108125,Estação Tubo Sagrado Coração,Estação Tubo Sagrado Coração - Sitio Cercado,-25.528058677408,-49.291496254764,,,0,41830,,
25534,108124,Estação Tubo Winston Churchill,Estação Tubo Winston Churchill - Pinheirinho,-25.520710249718,-49.295453854165,,,0,41827,,
25540,108051,Estação Tubo Itajubá,Estação Tubo Itajubá - Portão / Santa Cândida/ Praça Rui Barbosa,-25.481070736737,-49.29250832943,,,0,26122,,
25541,108144,Estação Tubo Catulo da P. Cearense,Estação Tubo Catulo da P. Cearense - Campo Comprido,-25.465055224179,-49.209806384656,,,0,41843,,
25542,108146,Estação Tubo Cajuru,Estação Tubo Cajuru - Campo Comprido,-25.4604271982,-49.21174654785,,,0,41845,,
25543,108148,Estação Tubo Teófilo Otoni,Estação Tubo Teófilo Otoni - Campo Comprido,-25.45728548614,-49.212937013492,,,0,41847,,
25544,108150,Estação Tubo Antônio Meirelles Sobrinho,Estação Tubo Antônio Meirelles Sobrinho - Campo Comprido,-25.446970598447,-49.216856830059,,,0,41849,,
25545,108152,Estação Tubo Germânia,Estação Tubo Germânia - Campo Comprido,-25.442132410438,-49.217694966865,,,0,41851,,
25548,108158,Estaçaõ Tubo Urbano Lopes,Estaçaõ Tubo Urbano Lopes - Rui Barbosa / Campo Comprido,-25.440751982263,-49.236597228836,,,0,26054,,
25552,108165,Estação Tubo Rodoferroviária,Estação Tubo Rodoferroviária - Pinhais / Centenário,-25.435717541034,-49.257546557494,,,0,26034,,
25553,108167,Estação Tubo Mariano Torres,Estação Tubo Mariano Torres - Rui Barbosa / Campo Comprido,-25.435644780933,-49.26077879082,,,0,26031,,
25554,108026,Estação Tubo Praça Eufrasio Correia,Estação Tubo Praça Eufrasio Correia - Santa Cândida / Centenário / Pinhais,-25.437670038693,-49.266681661447,,,0,14553,,
25555,108169,Estação Tubo Praça Rui Barbosa - 303 - Centenário / Campo Comprido,Estação Tubo Praça Rui Barbosa - 303 - Centenário / Campo Comprido - Centenário,-25.43592973,-49.2749106,,,0,41807,,
25556,108173,Estação Tubo Praça Osório,Estação Tubo Praça Osório - Campo Comprido,-25.433755359256,-49.277063235596,,,0,41806,,
25557,108175,Estação Tubo Visconde de Nacar,Estação Tubo Visconde de Nacar - Campo Comprido,-25.431274052955,-49.278832487674,,,0,41768,,
25558,108177,Estação Tubo Brigadeiro Franco,Estação Tubo Brigadeiro Franco - Centenário,-25.429440666486,-49.284535626389,,,0,41802,,
25559,108180,Estação Tubo Pres.Taunay,Estação Tubo Pres.Taunay - Campo Comprido,-25.428757407687,-49.287950657402,,,0,41801,,
25560,108182,Estação Tubo Praça da Ucrânia,Estação Tubo Praça da Ucrânia - Campo Comprido,-25.430287060502,-49.292623233103,,,0,41796,,
25561,108184,Estação Tubo Bruno Filgueira,Estação Tubo Bruno Filgueira - Campo Comprido,-25.431851374567,-49.296536492359,,,0,41793,,
25562,108186,Estação Tubo Bigorrilho,Estação Tubo Bigorrilho - Campo Comprido,-25.433217232278,-49.299960331971,,,0,41765,,
25563,108188,Estação Tubo Gastão Câmara,Estação Tubo Gastão Câmara - Campo Comprido,-25.434940199485,-49.304336607865,,,0,41789,,
25564,108190,Estação Tubo Major Heitor Guimarães,Estação Tubo Major Heitor Guimarães - Campo Comprido,-25.437868930461,-49.314091466504,,,0,41757,,
25565,108192,Estação Tubo Rio Barigui,Estação Tubo Rio Barigui - Campo Comprido,-25.439215779396,-49.317719740852,,,0,41759,,
25566,108194,Estação Tubo Paulo Gorski,Estação Tubo Paulo Gorski - Campo Comprido,-25.43750563285,-49.324355190285,,,0,41761,,
25567,108196,Estação Tubo São Grato,Estação Tubo São Grato - Campo Comprido,-25.436480047889,-49.328490570391,,,0,41755,,
25568,108198,Estação Tubo Mossunguê,Estação Tubo Mossunguê - Campo Comprido,-25.438594547776,-49.333182089328,,,0,41763,,
25569,108200,Estação Tubo Imperial,Estação Tubo Imperial - Campo Comprido,-25.439949184101,-49.336961573285,,,0,41753,,
25570,108202,Estação Tubo U.S. Campo Comprido,Estação Tubo U.S. Campo Comprido - Campo Comprido,-25.440968576519,-49.342524474014,,,0,41762,,
25638,108203,Estação Vila São Pedro,Estação Vila São Pedro 550 - Ligeirão Pinheirinho / C. Gomes (sentido Praça Carlos Gomes) 613 - V. Urano (sentido Terminal Capão Raso) 624 - V. São Pedro (sentido Terminal Capão Raso) 625 - Gramados (sentido Terminal Capão Raso),-25.506813852496,-49.284278333535,,,0,14581,,
25639,108204,Estação Vila São Pedro,Estação Vila São Pedro 550 - Ligeirão Pinheirinho / C. Gomes (sentido Pinheirinho) 613 - V. Urano (sentido V. Urano) 624 - V. São Pedro (sentido V. São Pedro) 625 - Gramados (sentido Terminal S. Cercado),-25.506738808136,-49.284472793689,,,0,47548,,
25644,108212,Estação Marechal Floriano,Estação Marechal Floriano B42 - Maracanã / Linha Verde (sentido Maracanã) 550 - Ligeirão Pinheirinho / C. Gomes (sentido Praça Carlos Gomes) 602 - Circular Sul (H) (sentido Boqueirão) 605 - Ctba / Faz. Rio Grande (sentido Curitiba),-25.469295510447,-49.253855377784,,,0,14600,,
25646,108166,Estação Tubo Rodoferroviária,Estação Tubo Rodoferroviária - Rui Barbosa / Campo Comprido,-25.435617512424,-49.256634944672,,,0,26011,,
25647,108163,Estação Tubo Viaduto Capanema,Estação Tubo Viaduto Capanema - Pinhais / Centenário,-25.435638778793,-49.250571397316,,,0,26040,,
25653,105702,Terminal Pinheirinho - 502 - Circular Sul (Horário),Terminal Pinheirinho - 502-Circular Sul (Horário) (Sentido Portão),-25.512702792669,-49.295566506944,,,0,14494,,
25660,108060,Estação Tubo José C.Bettega,Estação Tubo José C.Bettega - Capão Raso / Portão / Praça Rui Barbosa,-25.499475703368,-49.295950062833,,,0,26100,,
25680,108143,Estação Tubo Catulo da P. Cearense,Estação Tubo Catulo da P. Cearense - Centenário,-25.46521811,-49.20987407,,,0,41844,,
25681,109066,Estação Tubo Santa Quitéria,Estação Tubo Santa Quitéria -Sentido Guadalupe / T. Campina do Siqueira,-25.459129997717,-49.302406792031,,,0,14415,,
25682,109067,Estação Tubo Santa Quitéria,Estação Tubo Santa Quitéria - Sentido T. Portão / T. Fazendinha / T. Caiuá,-25.45914452819,-49.302459095107,,,0,14415,,
25683,109001,Estação Tubo Agrárias,Estação Tubo Agrárias - Cabral / Capão da Imbuia,-25.410621916056,-49.248223893301,,,0,41854,,
25684,109048,Estação Tubo Praça das Nações,Estação Tubo Praça das Nações - Cabral / Capão da Imbuia / Bairro Alto / Santa Felicidade,-25.42592406059,-49.242351196663,,,0,26081,,
25685,109021,Estação Tubo Colégio Militar,Estação Tubo Colégio Militar - Cabral / Capão da Imbuia / Bairro Alto / Santa Felicidade,-25.428907225605,-49.225112639325,,,0,14606,,
25686,109025,Estação Tubo Detran - 307-Bairro Alto / Santa Felicidade - 023-Inter 2 (Anti-Horário),Estação Tubo Detran - Cabral / Santa Felicidade,-25.430356995336,-49.211201362269,,,0,14604,,
25698,109065,Estação Tubo Salgado Filho,Estação Tubo Salgado Filho -Sentido Aeroporto / Hauer / Centro Cívico / Capão da Imbuia,-25.471695546865,-49.237493109333,,,0,26037,,
25699,109034,Estação Tubo Jardim das Américas,Jardim das Américas - Capão da Imbuia / Hauer,-25.452382098156,-49.229970009274,,,0,26135,,
25700,108009,Estação Tubo Holanda,Estação Tubo Holanda - Santa Cândida,-25.398800614989,-49.245376802937,,,0,41814,,
25701,108003,Estação Tubo Fernando de Noronha,Estação Tubo Fernando de Noronha - Santa Cândida,-25.384271911266,-49.231926689778,,,0,41810,,
25702,108001,Estação Tubo Joaquim Nabuco,Estação Tubo Joaquim Nabuco - Santa Cândida,-25.379907559523,-49.22793153945,,,0,41808,,
25703,108005,Estação Tubo Antônio Lago,Estação Tubo Antônio Lago - Santa Cândida,-25.38790309648,-49.235215078031,,,0,41812,,
25705,109040,Estação Tubo Paiol,Estação Tubo Paiol - Sentido Centro Cívico / Praça Carlos Gomes / Rodoferroviária / Terminal Guadalupe,-25.448149039186,-49.257986359674,,,0,14555,,
25706,108007,Estação Tubo Gago Coutinho,Estação Tubo Gago Coutinho - Santa Cândida,-25.395744242316,-49.242493252193,,,0,41769,,
25707,108011,Estação Tubo Antônio Cavalheiros,Estação Tubo Antônio Cavalheiros - Santa Cândida,-25.402475202806,-49.248784373437,,,0,41815,,
25709,108015,Estação Tubo Moisés Marcondes,Estação Tubo Moisés Marcondes - Cabral / Santa Cândida,-25.41239408359,-49.257930706177,,,0,41819,,
25711,109023,Estação Tubo Comendador Fontana,Estação Tubo Comendador Fontana - Sentido Pinheirinho / CIC/ Terminal Guadalupe/ Boqueirão,-25.419772264442,-49.26913860475,,,0,14570,,
25712,109022,Estação Tubo Comendador Fontana,Estação Tubo Comendador Fontana - Sentido Santa Cândida/ Cabral / Barreirinha/ Museu Oscar Niemeyer,-25.419830405313,-49.268907934775,,,0,14567,,
25716,109047,Estação Tubo Mercês,Estação Tubo Mercês - Campina Do Siqueira / Bairro Alto,-25.422406165926,-49.291661329815,,,0,14432,,
25719,109002,Estação Tubo Água Verde / Getúlio Vargas,Estação Tubo Água Verde / Getúlio Vargas - Sentido Santa Cândida / Terminal Guadalupe,-25.449737563135,-49.284600353044,,,0,26147,,
25720,441030,Estação Tubo Aeroporto,Estação Tubo Aeroporto - Sentido Curitiba/ Centro Cívico,-25.535958509714,-49.174490112932,,,0,41859,,
25721,109044,Estação Tubo Praça 29 de Março,Estação Tubo Praça 29 de Março - Pinhais / Bairro Alto,-25.428447321831,-49.28487356633,,,0,26075,,
25723,109052,Praça Tiradentes - 304 - Pinhais / Campo Comprido,Praça Tiradentes - 304 - Pinhais / Campo Comprido (Sentido Pinhais).,-25.429334090459,-49.272044968019,,,0,41861,,
25725,109015,Estação Tubo China,Estação Tubo China - Bairro Alto / Santa Felicidade,-25.423631125963,-49.202327417696,,,0,41863,,
25728,108021,Estação Tubo Passeio Público,Estação Tubo Passeio Público - Cabral / Santa Cândida,-25.423959273219,-49.268337668127,,,0,41773,,
25729,108027,Estação Tubo Alferes Poli / Catedral da Fé,Estação Tubo Alferes Poli / Catedral da Fé - Santa Cândida,-25.439140453466,-49.270409143408,,,0,41825,,
25730,108031,Estação Tubo Praça Oswaldo Cruz,Estação Tubo Praça Oswaldo Cruz - Santa Cândida/ Praça Rui Barbosa,-25.441207339035,-49.275852571199,,,0,26092,,
25731,108035,Estação Tubo Bento Viana,Estação Tubo Bento Viana - Santa Cândida / Praça Rui Barbosa,-25.444886124648,-49.285470404369,,,0,26101,,
25732,108037,Estação Tubo Silva Jardim,Estação Tubo Silva Jardim - Santa Cândida / Praça Rui Barbosa,-25.448322747926,-49.287777398148,,,0,26105,,
25733,108039,Estação Tubo Petit Carneiro,Estação Tubo Petit Carneiro - Santa Cândida / Praça Rui Barbosa,-25.452294327996,-49.287844382803,,,0,26109,,
25737,108053,Estação Tubo Hospital do Trabalhador,Estação Tubo Hospital do Trabalhador - Portão/ Santa Cândida/ Praça Rui Barbosa,-25.484422475285,-49.293689619014,,,0,26116,,
25738,108044,Estação Tubo Sebastião Paraná,Estação Tubo Sebastião Paraná - Pinheirinho / Capão Raso,-25.46116926485,-49.289856957969,,,0,26104,,
25739,108056,Estação Tubo Herculano de Araújo,Estação Tubo Herculano de Araújo - Portão/ Santa Cândida/ Praça Rui Barbosa,-25.487780521135,-49.2942378877,,,0,26111,,
25740,109003,Estação Tubo Água Verde / Iguaçu,Estação Tubo Água Verde / Iguaçu - Sentido Pinheirinho / Sítio Cercado / Fazendinha,-25.448301917892,-49.285369401301,,,0,26144,,
25748,108201,Estação Tubo U.S. Campo Comprido,Estação Tubo U.S. Campo Comprido - Centenário,-25.441060642695,-49.342506505809,,,0,41751,,
25749,108199,Estação Tubo Imperial,Estação Tubo Imperial - Centenário,-25.440034875186,-49.336916782222,,,0,41787,,
25750,108197,Estação Tubo Mossunguê,Estação Tubo Mossunguê - Centenário,-25.438680511373,-49.333147884554,,,0,41782,,
25751,108193,Estação Tubo Paulo Gorski,Estação Tubo Paulo Gorski - Centenário,-25.437596674402,-49.324382425493,,,0,41760,,
25752,108191,Estação Tubo Rio Barigui,Estação Tubo Rio Barigui - Centenário,-25.439305278471,-49.3177198183,,,0,41758,,
25753,108189,Estação Tubo Major Heitor Guimarães,Estação Tubo Major Heitor Guimarães - Centenário,-25.437968344722,-49.31409883613,,,0,41756,,
25754,108187,Estação Tubo Gastão Câmara,Estação Tubo Gastão Câmara - Centenário,-25.435033422382,-49.304303408808,,,0,41788,,
25755,108185,Estação Tubo Bigorrilho,Estação Tubo Bigorrilho - Centenário,-25.433301515379,-49.299922020382,,,0,41790,,
25756,108183,Estação Tubo Bruno Filgueira,Estação Tubo Bruno Filgueira - Centenário,-25.431949158009,-49.296483428425,,,0,41791,,
25757,108181,Estação Tubo Praça da Ucrânia,Estação Tubo Praça da Ucrânia - Centenário,-25.430382257228,-49.292587519831,,,0,41794,,
25758,108179,Estação Tubo Pres.Taunay,Estação Tubo Pres.Taunay - Centenário,-25.428815003633,-49.287983508056,,,0,41800,,
25759,108178,Estação Tubo Brigadeiro Franco,Estação Tubo Brigadeiro Franco - Campo Comprido,-25.429512583888,-49.283790215912,,,0,41766,,
25760,108176,Estação Tubo Visconde de Nacar,Estação Tubo Visconde de Nacar - Centenário,-25.431349971641,-49.278870702928,,,0,41767,,
25761,108174,Estação Tubo Praça Osório,Estação Tubo Praça Osório - Centenário,-25.433811007574,-49.277131290382,,,0,41805,,
25762,108157,Estação Tubo Urbano Lopes,Estaçaõ Tubo Urbano Lopes - Pinhais / Centenário,-25.440800424556,-49.236691126152,,,0,26055,,
25763,108156,Estação Tubo Del. Amazor Prestes,Estação Tubo Del. Amazor Prestes - Rui Barbosa / Campo Comprido,-25.44170960553,-49.23077471596,,,0,26057,,
25764,108155,Estação Tubo Del. Amazor Prestes,Estação Tubo Del. Amazor Prestes - Pinhais / Centenário,-25.441828976264,-49.230751377613,,,0,26058,,
25765,108154,Estação Tubo Profª. Maria Aguiar Teixeira,Estação Tubo Profª. Maria Aguiar Teixeira - Rui Barbosa / Campo Comprido,-25.438812743998,-49.226358458817,,,0,26062,,
25766,108151,Estação Tubo Germânia,Estação Tubo Germânia - Centenário,-25.442221997638,-49.217733858895,,,0,41852,,
25768,108149,Estação Tubo Antônio Meirelles Sobrinho,Estação Tubo Antônio Meirelles Sobrinho - Centenário,-25.447015365256,-49.216953419584,,,0,41850,,
25769,108147,Estação Tubo Teófilo Otoni,Estação Tubo Teófilo Otoni - Centenário,-25.457312115745,-49.213038907434,,,0,41848,,
25770,108145,Estação Tubo Cajuru,Estação Tubo Cajuru - Centenário,-25.460458700548,-49.211855217316,,,0,41846,,
25780,108058,Estação Tubo Pedro Gusso,Estação Tubo Pedro Gusso - Capão Raso / Portão / Praça Rui Barbosa,-25.495565971686,-49.29443158251,,,0,26103,,
25781,108062,Estação Tubo Santa Regina,Estação Tubo Santa Regina - Capão Raso / Portão / Praça Rui Barbosa,-25.503465274446,-49.295918867409,,,0,26090,,
25782,108064,Estação Tubo Ouro Verde,Estação Tubo Ouro Verde - Capão Raso / Portão / Praça Rui Barbosa,-25.507663079232,-49.295812920153,,,0,26050,,
25783,108123,Estação Tubo Winston Churchill,Estação Tubo Winston Churchill - Sítio Cercado,-25.520712670223,-49.295568839132,,,0,41828,,
25784,108127,Estação Tubo Rosa Tortato,Estação Tubo Rosa Tortato - Sitio Cercado,-25.530848105972,-49.287770316422,,,0,41832,,
25785,108128,Estação Tubo Rosa Tortato,Estação Tubo Rosa Tortato - Pinheirinho,-25.53071498938,-49.287633523762,,,0,41831,,
25786,108129,Estação Tubo Arroio Cercado,Estação Tubo Arroio Cercado - Sitio Cercado,-25.534667279096,-49.282751903355,,,0,41833,,
25787,108130,Estação Tubo Arroio Cercado,Estação Tubo Arroio Cercado - Pinheirinho,-25.534530536403,-49.282620475113,,,0,41834,,
25788,108132,Estação Tubo Quitandinha,Estação Tubo Quitandinha - Pinheirinho,-25.535704340284,-49.274915829718,,,0,41835,,
25789,108131,Estação Tubo Quitandinha,Estação Tubo Quitandinha - Sitio Cercado,-25.535810829139,-49.274466559708,,,0,41776,,
25790,108097,Estação Tubo Coqueiros,Estação Tubo Coqueiros - Sítio Cercado,-25.532470906368,-49.261822626411,,,0,41837,,
25791,108098,Estação Tubo Coqueiros,Estação Tubo Coqueiros - Boqueirão,-25.532562876501,-49.26178641659,,,0,41836,,
25792,108102,Estação Tubo Euclides da Cunha,Estação Tubo Euclides da Cunha - Boqueirão,-25.529997367388,-49.250161722719,,,0,41839,,
25793,108101,Estação Tubo Euclides da Cunha,Estação Tubo Euclides da Cunha - Sítio Cercado,-25.529811002796,-49.2501858626,,,0,41840,,
25794,108104,Estação Tubo Eucaliptos,Estação Tubo Eucaliptos - Boqueirão,-25.529054650019,-49.246220216572,,,0,41841,,
25795,108103,Estação Tubo Eucaliptos,Estação Tubo Eucaliptos - Sítio Cercado,-25.528838029705,-49.245926514685,,,0,41842,,
25796,108106,Estação Tubo Nova Europa,Estação Tubo Nova Europa - Boqueirão,-25.527780336075,-49.240706935942,,,0,43323,,
25797,108109,Estação Tubo Erton Coelho,Estação Tubo Erton Coelho - Sítio Cercado,-25.525255871715,-49.231059030115,,,0,43329,,
25798,108110,Estação Tubo Erton Coelho,Estação Tubo Erton Coelho - Boqueirão,-25.525441033178,-49.230906144201,,,0,43328,,
25799,108094,Estação Tubo Quartel,Estação Tubo Quartel 503 - Boqueirão (sentido Boqueirão) 502 - Circular Sul (H) (sentido Boqueirão),-25.507286589564,-49.234748408615,,,0,43335,,
25800,108093,Estação Tubo Quartel,Estação Tubo Quartel 503 - Boqueirão (sentido Praça Carlos Gomes) 602 - Circular Sul (AH) (sentido Hauer),-25.506250493174,-49.235135987818,,,0,43333,,
25802,108087,Estação Tubo Passarela,Estação Tubo Passarela 602 - Circular Sul (AH) (sentido Hauer) 503 - Boqueirão (sentido Praça Carlos Gomes,-25.485848104211,-49.245121181427,,,0,43345,,
25806,108081,Estação Tubo Ferrovila,Estação Tubo Ferrovila 503 - Boqueirão (sentido Boqueirão),-25.466699045492,-49.254522994577,,,0,41797,,
25807,108079,Estação Tubo Parolin,Estação Tubo Parolin 503 - Boqueirão (sentido Boqueirão) 550 - Ligeirão Pinheirinho / C. Gomes (sentido Pinheirinho),-25.463042423329,-49.256412610828,,,0,43351,,
25808,108080,Estação Tubo Parolin,Estação Tubo Parolin 503 - Boqueirão (sentido Praça Carlos Gomes) 550 - Ligeirão Pinheirinho / C. Gomes (sentido Praça Carlos Gomes),-25.462976432893,-49.256245643318,,,0,43352,,
25809,108075,Estação Tubo João Viana Seiler,Estação Tubo João Viana Seiler 503 - Boqueirão (sentido Praça Carlos Gomes),-25.454404028117,-49.260474816381,,,0,43355,,
25810,108073,Estação Tubo Conselheiro Dantas,Estação Tubo Conselheiro Dantas 503 - Boqueirão (sentido Boqueirão),-25.452485915124,-49.261508807956,,,0,41786,,
25812,109071,Estação Tubo Vila Guaíra,Estação Tubo Vila Guaíra - Sentido Praça Tiradentes/ Cabral/ CIC,-25.471888446609,-49.285734519779,,,0,26064,,
25813,109074,Estação Tubo Westphalen / Getúlio Vargas,Estação Tubo Westphalen / Getúlio Vargas - Sentido Santa Cândida / Terminal Guadalupe,-25.443506463375,-49.268243834793,,,0,26127,,
25814,109073,Estação Tubo Westphalen / Iguaçu,Estação Tubo Westphalen / Iguaçu - Sentido Pinheirinho / Sitio Cercado / Fazendinha,-25.441787999713,-49.268292114555,,,0,26128,,
25816,109033,Estação Tubo Jardim Botânico,Estação Tubo Jardim Botânico - Circulo Militar / Marechal Deodoro / Centenário / Centro Politécnico,-25.444108448367,-49.239838003206,,,0,26082,,
25817,109050,Praça do Expedicionário,Praça do Expedicionário - Marechal Deodoro / Circulo Militar,-25.42936090845,-49.258465944815,,,0,26080,,
25818,109049,Praça do Expedicionário,Praça do Expedicionário - Centro Politécnico / Centenário,-25.428830413906,-49.258181630659,,,0,25426,,
25819,109016,Estação Tubo Praça 29 de Março,Estação Tubo Praça 29 de Março - Campo Comprido / Santa Felicidade,-25.428269645747,-49.284841447163,,,0,26076,,
25820,109009,Estação Tubo Barigui,Estação Tubo Barigui - Campo Comprido,-25.436605966027,-49.317960022974,,,0,41778,,
25821,109077,Estação Tubo Xaxim,Estação Tubo Xaxim - Hauer / Capão Raso,-25.496289845744,-49.270365565109,,,0,26130,,
25822,109005,Estação Tubo Alto Boqueirão,Estação Tubo Alto Boqueirão - Sentido Boqueirão,-25.524983707283,-49.247530578661,,,0,41906,,
25823,109006,Estação Tubo Alto Boqueirão,Estação Tubo Alto Boqueirão - Sentido Sítio Cercado,-25.524822749335,-49.247543989706,,,0,41905,,
25824,109070,Estação Tubo Vila Acordes,Estação Tubo Vila Accordes - Sentido Sítio Cercado / Rui Barbosa,-25.52486268629,-49.268842070389,,,0,41901,,
25825,109072,Estação Tubo Vila São Pedro,Estação Tubo Vila São Pedro - Sentido Sítio Cercado / Rui Barbosa,-25.512831380231,-49.279856561708,,,0,41902,,
25826,109008,Estação Tubo Bairro Novo,Estação Tubo Bairro Novo - Sentido Osternack,-25.544877898705,-49.265872865009,,,0,41900,,
25827,109007,Estação Tubo Bairro Novo,Estação Tubo Bairro Novo - Sentido Sítio Cercado / Rui Barbosa,-25.544572976152,-49.265793739843,,,0,41899,,
25830,109038,Estação Tubo Osternack,Estação Tubo Osternack - 506 - Bairro Novo (Sentido Sítio Cercado) 520 - LD Osternack /S. Cercado (Sentido Sítio Cercado).,-25.553172220646,-49.250931619692,,,0,41897,,
25832,109046,Estação Tubo Mêrces,Estação Tubo Mêrces - Cabral / Santa Felicidade,-25.422359689289,-49.291559774807,,,0,14432,,
25872,109012,Estação Tubo Centro Cívico - Palácio Iguaçú,Estação Tubo Centro Cívico - Palácio Iguaçú - Sentido Boqueirão / Terminal Guadalupe / Aeroporto / Campina do Siqueira,-25.415420483986,-49.267928631252,,,0,14434,,
25873,109011,Estação Tubo Centro Cívico - Assembléia,Estação Tubo Centro Cívico - Assembléia - Sentido Museu Oscar Niemeyer / Cabral / Barreirinha,-25.415626406879,-49.266380996651,,,0,14560,,
25875,109013,Estação Tubo Centro Comunitário,Estação Tubo Centro Comunitário - Sentido Sítio Cercado / Rui Barbosa,-25.547611276957,-49.260192380071,,,0,41898,,
25876,160739,Estação tubo Centro Comunitário,Centro Comunitário sentido Osternack,-25.547883522374,-49.260390863538,,,1,,,
25877,108162,Estação Tubo Hospital Cajuru,Estação Tubo Hospital Cajuru - Rui Barbosa / Campo Comprido,-25.437027959344,-49.243685491076,,,0,26042,,
25878,108161,Estação Tubo Hospital Cajuru,Estação Tubo Hospital Cajuru - Pinhais / Centenário,-25.437130902377,-49.243700245225,,,0,26043,,
25879,109076,Estação Tubo Xapinhal,Estação Tubo Xapinhal - Sentido Pinheirinho / Capão Raso),-25.535641637299,-49.284699865867,,,0,41907,,
25880,109075,Estação Tubo Xapinhal,Estação Tubo Xapinhal - Sentido Sítio Cercado / Boqueirão,-25.535847354429,-49.284780332137,,,0,41908,,
25881,109057,Estação Tubo Prefeitura,Estação Tubo Prefeitura -Sentido Assembléia / Museu Oscar Niemeyer / Barreirinha,-25.417899341803,-49.268459708637,,,0,14562,,
25883,109058,Estação Tubo Prefeitura,Estação Tubo Prefeitura -Sentido Boqueirão / Aeroporto,-25.417850890302,-49.268689037508,,,0,14564,,
25885,108082,Estação Tubo Ferrovila,Estação Tubo Ferrovila 503 - Boqueirão (sentido Praça Carlos Gomes),-25.466638897352,-49.254349678764,,,0,41798,,
25886,108076,Estação Tubo João Viana Seiler,Estação Tubo João Viana Seiler 503 - Boqueirão (sentido Boqueirão),-25.455437896862,-49.260086253295,,,0,43356,,
25888,109029,Terminal Guadalupe - 256-Barreirinha/Guadalupe - 505-Boqueirão/Centro Cívico,Estação Tubo Terminal Guadalupe Sentido Boqueirão Sentido Barreirinha,-25.433066059432,-49.265153436428,,,0,41857,,
25891,109054,Estação Tubo Nestor de Castro - 304 - Pinhais / Campo Comprido,Nestor de Castro - 304 - Pinhais / Campo Comprido (Sentido Campo Comprido).,-25.428275309955,-49.272069961971,,,0,41860,,
25892,109055,Estação Tubo Nestor de Castro - 307 - Bairro Alto/ Santa Felicidade,Nestor de Castro - 307 - Bairro Alto/ Santa Felicidade 902 - LD Sta. Felicidade (Sentido Santa Felicidade).,-25.428361303918,-49.27237305159,,,0,41864,,
25893,109056,Estação Tubo Nestor de Castro - 210 - CIC/Cabral,Estação Tubo Nestor de Castro - 210 - CIC/Cabral 601 - CIC / Tiradentes (Sentido CIC),-25.428518757493,-49.272823662704,,,0,41919,,
25894,109051,Praça Tiradentes - 210 - CIC / CABRAL,Tubo Praça Tiradentes 210 - CIC / CABRAL (Sentido Terminal Cabral) 601 - CIC / Tiradentes .,-25.429397071406,-49.272323430723,,,0,41920,,
25895,109045,Estação Tubo Praça da Bandeira - Inter 2 (Horário ),Estação Tubo Praça da Bandeira - Cabral,-25.416557505903,-49.279266356006,,,0,41855,,
25896,109053,Praça Tiradentes - 307- Bairro Alto / Santa Felicidade,Praça Tiradentes - 307- Bairro Alto / Santa Felicidade (Sentido Bairro Alto).,-25.429243252498,-49.271788330025,,,0,41865,,
25897,109069,Estação Tubo Teffé - 023-Inter 2 (Anti-Horário),Estação Tubo Teffé - 023-Inter 2 (Anti-Horário) (Sentido Campina do Siqueira),-25.414534616689,-49.279617725387,,,0,41856,,
25899,109062,Estação Tubo Praça Rui Barbosa - 506 - Bairro Novo,Estação Tubo Praça Rui Barbosa - 506-Bairro Novo (Sentido Bairro Novo).,-25.436156431226,-49.271179955612,,,0,41904,,
25900,109063,Estação Tubo Praça Rui Barbosa - 210 - CIC / Cabral,Estação Tubo Praça Rui Barbosa - 210 - CIC / Cabral (Sentido CIC),-25.436484639904,-49.271032434116,,,0,41921,,
25904,108171,Praça Rui Barbosa - (Embarque) Pinhais / Rui Barbosa - Centenário / Rui Barbosa,Praça Rui Barbosa - Pinhais / Centenário,-25.436513706313,-49.274033826003,,,0,,,
25906,108215,Praça Carlos Gomes - 550-Ligeirão Pinheirinho / C. Gomes,Praça Carlos Gomes - 550 - Ligeirão Pinheirinho / C. Gomes (sentido Pinheirinho),-25.433994591577,-49.269173663269,,,0,41764,,
25909,109026,Terminal Guadalupe - 508-Sítio Cercado (AH),Terminal Guadalupe -508-Sítio Cercado (AH) (Sentido Pinheirinho).,-25.432266115351,-49.265560727726,,,0,41910,,
25911,109027,Terminal Guadalupe - 505-Boqueirão / Centro Cívico-507-Sítio Cercado (H),Terminal Guadalupe - 505-Boqueirão / Centro Cívico- 507-Sítio Cercado (H) (Sentido Boqueirão) .,-25.43249623228,-49.265448074947,,,0,41909,,
25912,108096,Estação Tubo Antônio de Paula,Estação Tubo Antônio de Paula 503 - Boqueirão (sentido Boqueirão) 502 - Circular Sul (H) (sentido Boqueirão),-25.512537136858,-49.23218524457,,,0,43341,,
25914,109031,Estação Tubo Guadalupe,Estação Tubo Guadalupe - Sentido Centro Cívico / Barreirinha,-25.432066276608,-49.264155250202,,,0,26027,,
25915,109060,Estação Tubo Rodoferroviária,Estação Tubo Rodoferroviária - Sentido Aeroporto / Pinhais/ PUC,-25.435397800008,-49.260840039859,,,0,26029,,
25916,109061,Estação Tubo Rodoferroviária,Estação Tubo Rodoferroviária -Sentido Centro Cívico / Campo Comprido,-25.435356622213,-49.260860156427,,,0,26029,,
25917,109018,Estação Tubo Circulo Militar,Estação Tubo Circulo Militar - Sentido Centro Cívico / Museu Oscar Niemeyer/ Barreirinha,-25.426994816036,-49.264729242931,,,0,26083,,
25918,109019,Estação Tubo Circulo Militar,Estação Tubo Circulo Militar - Sentido Pinheirinho / Centro Politécnico,-25.427393362505,-49.264734607349,,,0,26085,,
25919,109020,Estação Tubo Círculo Militar,Estação Tubo Circulo Militar - Sentido Terminal Guadalupe/ Aeroporto/ Boqueirão,-25.427237118653,-49.264801662574,,,0,26084,,
25920,109068,Estação Tubo Sete de Setembro,Estação Tubo Sete de Setembro - Sentido Praça Tiradentes / Cabral,-25.440314255936,-49.271795462059,,,0,41911,,
25924,108049,Estação Tubo Carlos Dietzsch,Estação Tubo Carlos Dietzsch - Santa Cândida / Praça Rui Barbosa,-25.472597214349,-49.294372161675,,,0,26114,,
25925,108047,Estação Tubo Morretes,Estação Tubo Morretes - Santa Cândida / Praça Rui Barbosa,-25.467671216077,-49.293124934483,,,0,26117,,
26009,108045,Estação Tubo Vital Brasil,Estação Tubo Vital Brasil - Santa Cândida / Praça Rui Barbosa,-25.464646632699,-49.291212519455,,,0,26123,,
26010,108041,Estação Tubo Dom Pedro l,Estação Tubo Dom Pedro l - Santa Cândida / Praça Rui Barbosa,-25.456920160003,-49.288507511664,,,0,26097,,
26011,null,Estação Tubo Rodoferroviária,Rodoferroviária - Sentido Rui Barbosa / Campo Comprido,-25.435634230275,-49.2566111471,,,1,,,
26015,108019,Estação Tubo Maria Clara,Estação Tubo Maria Clara - Cabral / Santa Cândida,-25.418876163377,-49.263979078478,,,0,41822,,
26016,109147,Estação Tubo Constantino Marochi,Estação Tubo Constantino Marochi - Cabral / Santa Cândida,-25.415155061624,-49.260541827625,,,0,41821,,
26017,108013,Estação Tubo Bom Jesus,Estação Tubo Bom Jesus - Cabral / Santa Cândida,-25.409287309813,-49.255050004667,,,0,41817,,
26019,108010,Estação Tubo Holanda,Estação Tubo Holanda - Capão Raso,-25.399555354092,-49.246224370986,,,0,41771,,
26020,108008,Estação Tubo Gago Coutinho,Estação Tubo Gago Coutinho - Capão Raso,-25.396518311125,-49.243371084002,,,0,41770,,
26021,108208,Estação Santa Bernadethe,Estação Santa Bernadethe 550 - Ligeirão Pinheirinho / C. Gomes (sentido Pinheirinho) 616 - Portão / Sta Bernadete / L. Verde (sentido Portão),-25.485113611665,-49.26698181147,,,0,47547,,
26022,108004,Estação Tubo Fernando de Noronha,Estação Tubo Fernando de Noronha - Capão Raso,-25.385134371048,-49.232854477791,,,0,41811,,
26025,108210,Estação Fanny,Estação Fanny B42 - Maracanã / Linha Verde (sentido Maracanã) 550 - Ligeirão Pinheirinho / C. Gomes (sentido Pinheirinho) 560 - Alferes Poli (sentido Pça Rui Barbosa) 616 - Portão / Sta Bernadete / L.Verde (sentido Portão) 621- Fanny (sentido Hauer),-25.474845554019,-49.258702129474,,,0,47567,,
26026,108209,Estação Fanny,Estação Fanny 550 - Ligeirão Pinheirinho / C. Gomes (sentido Praça Carlos Gomes) 560 - Alferes Poli (sentido Praça Rui Barbosa) 616 - Portão / Sta Bernadete / L.Verde (sentido Portão) 621 - Fanny (sentido Capão Raso),-25.474973889693,-49.258533150306,,,0,14594,,
26027,null,Estação Tubo Guadalupe,Estação Tubo Guadalupe.,-25.432108283319,-49.264145375437,,,1,,,
26028,108213,Estação Tubo UTFPR,Estação Tubo UTFPR 550 - Ligeirão Pinheirinho / C. Gomes,-25.439078856746,-49.26810326864,,,0,43357,,
26029,null,Estação Tubo Rodoferroviária,Estação Tubo Rodoferroviária (Linha Direta).,-25.435392862369,-49.260863692707,,,1,,,
26030,108168,Estação Tubo Mariano Torres,Estação Tubo Mariano Torres - Pinhais / Centenário,-25.435735612068,-49.260801584596,,,0,26032,,
26031,null,Estação Tubo Mariano Torres,Estação Tubo Mariano Torres - Rui Barbosa / Campo Comprido,-25.435648406616,-49.260776520914,,,1,,,
26032,null,Estação Tubo Mariano Torres,Estação Tubo Mariano Torres - Pinhais / Centenário,-25.435741661964,-49.26081675405,,,1,,,
26033,null,Estaçâo Tubo PUC,Estaçâo Tubo PUC.,-25.453389890017,-49.252650888325,,,1,,,
26034,null,Estação Tubo Rodoferroviária,Estação Tubo Rodoferroviária - Pinhais / Centenário,-25.435718650911,-49.257553846783,,,1,,,
26035,108206,Estação Xaxim,Estação Xaxim 657 - Xaxim / C. Raso (Sentido Xaxim) 550 - Ligeirão Pinheirinho / C. Gomes (Sentido Pinheirinho) 551 - Xaxim / Linha Verde .,-25.496640338232,-49.27637118136,,,0,14586,,
26036,108205,Estação Xaxim,Estação Xaxim 657 - Xaxim / C. Raso (Sentido Capão Raso) 550 - Ligeirão Pinheirinho / C. Gomes (Sentido Praça Carlos Gomes),-25.496691179013,-49.276145875802,,,0,14586,,
26037,null,Estação Tubo Salgado Filho,Estação Tubo Salgado Filho - Sentido Aeroporto / Centro Cívico,-25.471734290739,-49.237478357183,,,1,,,
26038,108164,Estação Tubo Viaduto Capanema,Estação Tubo Viaduto Capanema - Rui Barbosa / Campo Comprido,-25.435546730475,-49.250568710107,,,0,26039,,
26039,null,Estação Tubo Viaduto Capanema,,-25.435545822175,-49.250566692299,,,1,,,
26040,null,Estação Tubo Viaduto Capanema,,-25.435635444276,-49.250574738926,,,1,,,
26041,109039,Estação Tubo Paiol,Estação Tubo Paiol - Sentido Sítio Cercado / Boqueirão / Aeroporto / Fazenda Rio Grande,-25.448161149017,-49.258066825944,,,0,14555,,
26042,null,Estação Tubo Hospital Cajuru,,-25.437027000503,-49.243666709608,,,1,,,
26043,null,Estação Tubo Hospital Cajuru,,-25.437127521349,-49.243697555012,,,1,,,
26044,null,Estação Tubo UTFPR,Estação Tubo UTFPR - Boqueirão,-25.438860257617,-49.26820452203,,,1,,,
26045,108160,Estação Tubo Jardim Botânico,Estação Tubo Jardim Botânico - Rui Barbosa / Campo Comprido,-25.438110723495,-49.238652241969,,,0,26049,,
26046,null,Estação Tubo Ouro Verde,,-25.507694230473,-49.295921505636,,,1,,,
26047,108159,Estação Tubo Jardim Botânico,Estação Tubo Jardim Botânico - Pinhais / Centenário,-25.438177333104,-49.238731363135,,,0,26048,,
26048,null,Estação Tubo Jardim Botânico,,-25.438187223956,-49.238716692871,,,1,,,
26049,null,Estação Tubo Jardim Botânico,,-25.438119403268,-49.238640249914,,,1,,,
26050,null,Estação Tubo Ouro Verde,,-25.507694549211,-49.295811535066,,,1,,,
26051,null,Estação Tubo Almirante Gonçalves,Estação Tubo Almirante Gonçalves - Praça Carlos Gomes,-25.447478575874,-49.26381575753,,,1,,,
26052,null,Estação Tubo Almirante Gonçalves,Estação Tubo Almirante Gonçalves - Boqueirão / Pinheirinho,-25.448493381162,-49.263417449491,,,1,,,
26054,null,Estação Tubo Urbano Lopes,,-25.440753482271,-49.236593724436,,,1,,,
26055,null,Estação Tubo Urbano Lopes,,-25.440814035134,-49.236675531811,,,1,,,
26057,null,Estação Tubo Del. Amazor Prestes,,-25.441711424994,-49.230753214306,,,1,,,
26058,null,Estação Tubo Del. Amazor Prestes,,-25.441817997165,-49.230731756634,,,1,,,
26060,108088,Estação Tubo Passarela,Estação Tubo Passarela 502 - Circular Sul (H) (sentido Boqueirão) 503 - Boqueirão (sentido Boqueirão),-25.48696732168,-49.244694039642,,,0,43346,,
26062,null,Estação Tubo Profª. Maria Aguiar Teixeira,,-25.438826674276,-49.226365120358,,,1,,,
26063,108083,Estação Tubo Roberto Hauer,Estação Tubo Roberto Hauer 503 - Boqueirão (sentido Boqueirão) 502 - Circular Sul (H) (sentido Boqueirão),-25.473354043681,-49.25133409788,,,0,43350,,
26064,null,Estação tubo Vila Guaira,Estação tubo Vila Guaira.,-25.471860263975,-49.285697207114,,,1,,,
26067,109035,Estação Tubo Pres. Kennedy,Estação Tubo Pres. Kennedy - Sentido Praça Rui Barbosa / Praça Tiradentes / Cabral / CIC/ Bairro Novo/ Sítio Cercado,-25.455470508595,-49.267544016501,,,0,41903,,
26075,null,Estação Tubo 29 de Março,,-25.428454684182,-49.2848731917,,,1,,,
26076,null,Estação Tubo 29 de Março,,-25.428202758229,-49.284867827282,,,1,,,
26080,null,Estação Tubo Praça do Expedicionário,Estação Tubo Praça do Expedicionário.,-25.429362587506,-49.258449257291,,,1,,,
26081,null,Estação Tubo Praça das Nações,Estação Tubo Praça das Nações.,-25.425965201948,-49.242339909948,,,1,,,
26082,null,Estação Tubo Jardim Botânico,Estação Tubo Jardim Botânico.,-25.444114503487,-49.239806038139,,,1,,,
26083,null,Estação Tubo Circulo Militar,Estação Tubo Circulo Militar.,-25.426983354181,-49.264765334127,,,1,,,
26084,null,Estação Tubo Circulo Militar,Estação Tubo Circulo Militar. (Tibagi),-25.427251028197,-49.264790815113,,,1,,,
26085,null,Estação Tubo Circulo Militar,Estação Tubo Circulo Militar.,-25.427400629656,-49.264733147619,,,1,,,
26087,108084,Estação Tubo Roberto Hauer,Estação Tubo Roberto Hauer 503 - Boqueirão (sentido Praça Carlos Gomes) 602 - Circular Sul (AH) (sentido Portão),-25.472307968783,-49.251698207754,,,0,43349,,
26090,null,Estaçao Tubo Santa Regina,,-25.503476168282,-49.295921505636,,,1,,,
26091,null,Estaçao Tubo Santa Regina,,-25.503485851691,-49.296019406265,,,1,,,
26092,null,Estação Tubo Praça Oswaldo Cruz,,-25.441209155615,-49.275852547235,,,1,,,
26093,null,Estação Tubo Praça Oswaldo Cruz,,-25.441596086422,-49.277096421666,,,1,,,
26094,null,Estação Tubo Dom Pedro I,,-25.456941676264,-49.288610016568,,,1,,,
26095,null,Estação Tubo Cel. Dulcídio,,-25.443354516865,-49.281733961052,,,1,,,
26096,null,Estação Tubo Cel. Dulcídio,,-25.442980307578,-49.280461252874,,,1,,,
26097,null,Estação Tubo Dom Pedro I,,-25.456961050578,-49.288513457043,,,1,,,
26098,null,Estaçao Tubo José C.Bettega,,-25.499490168791,-49.296067686027,,,1,,,
26099,null,Estação Tubo Bento Viana,,-25.444810167821,-49.285585613197,,,1,,,
26100,null,Estaçao Tubo José C.Bettega,,-25.499492589724,-49.295957715457,,,1,,,
26101,null,Estação Tubo Bento Viana,,-25.444884039821,-49.28545284385,,,1,,,
26102,null,Estaçao Tubo Pedro Gusso,,-25.495524432287,-49.294541110451,,,1,,,
26103,null,Estaçao Tubo Pedro Gusso,,-25.495576484046,-49.294437845404,,,1,,,
26104,null,Estação Tubo Sebastião Paraná,,-25.461213637096,-49.289889430268,,,1,,,
26105,null,Estação Tubo Silva Jardim,,-25.448326909169,-49.287779660171,,,1,,,
26106,null,Estação Tubo Silva Jardim,,-25.448314799354,-49.287870855277,,,1,,,
26107,null,Estação Tubo Sebastião Paraná,,-25.461251173495,-49.289792870743,,,1,,,
26108,null,Estação Tubo Petit Carneiro,,-25.45231823771,-49.287924499457,,,1,,,
26109,null,Estação Tubo Petit Carneiro,,-25.452297651707,-49.287841350978,,,1,,,
26110,null,Estação Tubo Herculano de Araujo,,-25.487809628052,-49.294333239252,,,1,,,
26111,null,Estação Tubo Herculano de Araujo,,-25.487801153964,-49.294238020832,,,1,,,
26112,null,Estação Tubo Hospital do Trabalhador,,-25.48441884343,-49.293791542957,,,1,,,
26113,null,Estação Tubo Carlos Dietzsch,,-25.47261311273,-49.294477136081,,,1,,,
26114,null,Estação Tubo Carlos Dietzsch,,-25.472619166415,-49.294377894347,,,1,,,
26116,null,Estação Tubo Hospital do Trabalhador,,-25.484443055791,-49.293689619014,,,1,,,
26117,null,Estação Tubo Morretes,,-25.467687733655,-49.293138713782,,,1,,,
26118,null,Estação Tubo Morretes,,-25.467633248246,-49.293221862262,,,1,,,
26120,null,Estação Tubo Itajubá,,-25.481088386746,-49.292615394304,,,1,,,
26121,null,Estação Tubo Vital Brasil,,-25.464630458628,-49.291314811652,,,1,,,
26122,null,Estação Tubo Itajubá,,-25.481100493262,-49.29250408263,,,1,,,
26123,null,Estação Tubo Vital Brasil,,-25.464671626412,-49.29122495765,,,1,,,
26124,null,Estação Tubo Praça Eufrásio Correia,Estação Tubo Praça Eufrásio Correia - Praça Rui Barbosa - Campo Comprido - Capão Rasoação Tubo Praça Eufrásio Correia.,-25.437599510311,-49.266772773077,,,1,,,
26126,null,Estação Tubo AHÚ,Estação Tubo AHÚ.,-25.391130303058,-49.258136207861,,,1,,,
26127,null,Estação Tubo Westphalen,Estação Tubo Westphalen / Getúlio Vargas,-25.443495564105,-49.26819848706,,,1,,,
26128,null,Estação Tubo Westphalen,Estação Tubo Westphalen / Iguaçu,-25.44180979856,-49.268329915302,,,1,,,
26129,108170,Estação Tubo Praça Rui Barbosa - 603 -Pinheirinho / Rui Barbosa,Praça Rui Barbosa - 603 -Pinheirinho / Rui Barbosa (Sentido Pinheirinho),-25.436117675899,-49.274253767142,,,0,47549,,
26130,null,Estação Tubo Xaxim,,-25.496311634716,-49.270384340572,,,1,,,
26135,null,Estação Tubo Jardim das Américas,Estação Tubo Jardim das Américas.,-25.452336690766,-49.229947210497,,,1,,,
26137,102001,Praça Rui Barbosa - 666 - Novo Mundo,Praça Rui Barbosa 666 - Novo Mundo.,-25.43588731128,-49.274486810976,,,0,,,
26140,102016,Praça Rui Barbosa - 703 - Caiuá,Praça Rui Barbosa 703 -Caiuá. 789 - Mad. Caiuá.,-25.434806999449,-49.272209615522,,,0,,,
26141,102015,Praça Rui Barbosa - 701 - Fazendinha,Praça Rui Barbosa - 701-Fazendinha (Sentido Terminal Fazendinha).,-25.434867555301,-49.272330314928,,,0,,,
26142,102013,Praça Rui Barbosa - 760 - Santa Quitéria,Praça Rui Barbosa 760 - Santa Quitéria.,-25.43497897799,-49.272625357919,,,0,,,
26143,102012,Praça Rui Barbosa - 761 - Vila Izabel,Praça Rui Barbosa 761 - Vila Izabel 189 - Mad Abranches.,-25.435056489364,-49.272818476968,,,0,,,
26144,null,Estação Tubo Água Verde,Estação Tubo Água Verde / Iguaçu.,-25.448305550837,-49.285392494148,,,1,,,
26145,102011,Praça Rui Barbosa - 762 - Vila Rosinha,Praça Rui Barbosa 762 - Vila Rosinha.,-25.435117045091,-49.27300354939,,,0,,,
26146,102010,Praça Rui Barbosa - 778 - Cotolengo,Praça Rui Barbosa 778 - Cotolengo.,-25.43522120087,-49.273236901574,,,0,,,
26147,null,Estação Tubo Água Verde,Estação Tubo Água Verde / Getúlio Vargas,-25.449719969058,-49.284563691562,,,1,,,
26148,102002,Praça Rui Barbosa - 663 - V. Cubas,Praça Rui Barbosa 663 - V. Cubas.,-25.435758933924,-49.274266869836,,,0,,,
26149,102009,Praça Rui Barbosa - 777 - V. Velha / 788-Mad. V. Velha,Praça Rui Barbosa - 777- Vila Velha 788 - MAd. Vila Velha,-25.435279334289,-49.273338825517,,,0,,,
26150,102008,Praça Rui Barbosa - 776 - Carmela Dutra,Praça Rui Barbosa 776 - Carmela Dutra .,-25.435318089886,-49.273462207132,,,0,,,
26151,102007,Praça Rui Barbosa - 160 - Jd.Mercês / Guanabara,160 - Jd. Mercês / Guanabara (Sentido Jd. Mercês),-25.435376223258,-49.273590953164,,,0,,,
26152,102006,Praça Rui Barbosa - 561 - Guilhermina,Praça Rui Barbosa 561 - Guilhermina.,-25.435434356602,-49.273730428033,,,0,,,
26153,102005,Praça Rui Barbosa - 665 - Vila Rex,Praça Rui Barbosa 665 - Vila Rex.,-25.435492489918,-49.273869902902,,,0,,,
26154,102004,Praça Rui Barbosa - 661 - Lindóia,Praça Rui Barbosa 661- Lindóia.,-25.435574845401,-49.273982555681,,,0,,,
26155,102003,Praça Rui Barbosa - 662 - Dom Ático,Praça Rui Barbosa 662 - Dom Ático.,-25.435662045263,-49.274100572877,,,0,,,
26156,102040,Praça Rui Barbosa - 461 - Santa Bárbara,Praça Rui Barbosa - 461- Santa Bárbara,-25.434760976981,-49.272469789796,,,0,,,
26157,102041,Praça Rui Barbosa - 462 - Petrópolis,Praça Rui Barbosa 462 - Petrópolis.,-25.434700421075,-49.272335679345,,,0,,,
26158,102039,Praça Rui Barbosa - 465 - Erasto Gaetner,Praça Rui Barbosa - Erasto Gaetner 889 - Mad. São Braz,-25.434871188651,-49.272738010698,,,0,,,
26159,102038,Praça Rui Barbosa - 387 - Palotinos,Praça Rui Barbosa 387-Palotinos.,-25.434963233486,-49.272982091718,,,0,,,
26160,102037,Praça Rui Barbosa - 265 - Ahú Los Angeles / 289-Mad.Jd.Graziela,Praça Rui Barbosa 265-Ahú / Los Angeles (Sentido Los Angeles) 289 - Mad. Jd. Graziela,-25.43503105595,-49.27314034205,,,0,,,
26161,102036,Praça Rui Barbosa - 180 - Água Verde/Abranches,Praça Rui Barbosa- 180 - Água Verde / Abranches (sentido Água Verde).,-25.435106145063,-49.273320050054,,,0,,,
26162,102035,Praça Rui Barbosa - 285 - Juvevê / Água Verde,Praça Rui Barbosa - 285 - Juvevê / Água Verde (sentido Água Verde),-25.435186078583,-49.273523897939,,,0,,,
26163,102031,Praça Rui Barbosa - 860 - Vila Sandra,Praça Rui Barbosa 860 -Vila Sandra. 609 - Mad. Cic,-25.436801693209,-49.274457306676,,,0,,,
26164,102033,Praça Rui Barbosa - 670 - São Jorge,Praça Rui Barbosa 670 - São Jorge.,-25.436437152371,-49.274620921426,,,0,,,
26165,102032,Praça Rui Barbosa - 861 - Tramontina,Praça Rui Barbosa 861 - Tramontina.,-25.436623661775,-49.274535090738,,,0,,,
26166,102034,"Praça Rui Barbosa, 632 - Centro",Ponto de Parada Praça Rui Barbosa - 001 Circular Centro (Horário),-25.435714122928,-49.274807334953,,,0,,,
26167,102028,Praça Rui Barbosa - 671 - Portão,Praça Rui Barbosa - 671- Portão. 689 - Mad. S. Pedro / Rio Negro,-25.436659994742,-49.273804188781,,,0,,,
26168,102029,Praça Rui Barbosa - 673 - Formosa,Praça Rui Barbosa 673 -Formosa.,-25.436732660643,-49.273995966726,,,0,,,
26169,102030,Praça Rui Barbosa - 674 - Nsa. Sra. Da Luz,Praça Rui Barbosa 674 - Nsa. Sra. Da Luz..,-25.436806537598,-49.274183721357,,,0,,,
26170,102017,Praça Rui Barbosa - 560 - Alferes Poli,Praça Rui Barbosa 560 - Alferes Poli .,-25.434941433399,-49.271937371306,,,0,,,
26173,102018,Praça Rui Barbosa - 470 - Guabirotuba,Praça Rui Barbosa 470 - Guabirotuba,-25.435068600512,-49.271877021603,,,0,,,
26174,102019,Praça Rui Barbosa - 475 - Canal Belém,Praça Rui Barbosa 475 - Canal Belém.,-25.435187289696,-49.271812648587,,,0,,,
26178,102022,Praça Rui Barbosa - 471 - Vila São Paulo,Praça Rui Barbosa 471 - Vila São Paulo.,-25.435521556566,-49.271662444882,,,0,,,
26179,102020,Praça Rui Barbosa - 468 - Jd Centauro,Praça Rui Barbosa - 468 - Jd Centauro.,-25.435289023189,-49.27177777987,,,0,,,
26180,102021,Praça Rui Barbosa - 474 - Jd Itiberê,Praça Rui Barbosa 474-Jd Itiberê.,-25.435384701039,-49.271721453481,,,0,,,
26181,102023,Praça Rui Barbosa - 467 - Vila Macedo,Praça Rui Barbosa - 467 - Vila Macedo.,-25.435626923104,-49.271615506225,,,0,,,
26182,102024,Praça Rui Barbosa - 472 - Uberaba,Praça Rui Barbosa 472 - Uberaba.,-25.435743189522,-49.271563203149,,,0,,,
26183,102027,Praça Rui Barbosa - 385 - Cristo Rei,Praça Rui Barbosa 385 - Cristo Rei .,-25.436612761883,-49.273029030375,,,0,,,
26184,104411,Terminal Cabral - 203 - Santa Cândida / Capão Raso,Terminal Cabral - Santa Cândida,-25.406763658218,-49.252844767511,,,0,14474,,
26185,108030,Estação Tubo Praça Rui Barbosa - 303 - Centenário / Campo Comprido,Estação Tubo Praça Rui Barbosa - 303 - Centenário / Campo Comprido (Sentido Campo Comprido),-25.435613478,-49.27426829,,,0,41853,,
26187,104413,Terminal Cabral - 203 - Santa Cândida / Capão Raso,Terminal Cabral - Capão Raso,-25.40643942,-49.25274264,,,0,14474,,
26190,104201,Terminal Boa Vista - 203 - Sta. Cândida C. Raso,Terminal Boa Vista Sentido Capão Raso,-25.39351746,-49.24061637,,,0,14471,,
26191,104702,Terminal Capão da Imbuia - 303 - Centenário / Campo Comprido,Terminal Capão Imbuia-Centenário.,-25.440148554607,-49.221592129416,,,0,14478,,
26192,105101,Terminal Centenário - 303 - Centenário / Campo Comprido,Terminal Centenário - 303 - Centenário / Campo Comprido (Sentido Campo Comprido) 302 - Centenário/Rui Barbosa (Sentido Rui Barbosa).,-25.46900229,-49.20829802,,,0,14483,,
26193,104202,Terminal Boa Vista - 203 - Sta. Cândida C. Raso,Terminal Boa Vista Sentido Santa Cândida,-25.39366084452,-49.24063428764,,,0,14471,,
26195,104601,Terminal Campo Comprido - 303 - Centenário / C.Comprido - Embarque,Terminal Campo Comprido 303-Centenário / C.Comprido (Sentido Praça Rui Barbosa).,-25.44171989811,-49.346978282274,,,0,14508,,
26196,105901,Terminal Santa Cândida - 203 - Santa Cândida / Capão Raso,Terminal Santa Cândida - 203 - Santa Cândida / Capão Raso (Sentido Capão Raso).,-25.377358491106,-49.224221622586,,,0,14470,,
26197,105801,Terminal Portão - 203 - Sta. Cândida / C. Raso - Pinheirinho / Rui Barbosa-Circular Sul (H),Terminal Portão - 203 - Sta. Cândida / C. Raso ( Sentido Santa Cândida) 603 - Pinheirinho (Sentido Rui Barbosa) 502 - Circular Sul (Horário ) (Sentido Terminal Hauer) .,-25.47637224,-49.29260731,,,0,14499,,
26198,104701,Terminal Capão da Imbuia - 303 - Centenário / Campo Comprido,Terminal Capão Imbuia-Campo Comprido.,-25.440005649011,-49.221567080322,,,0,14478,,
26199,104801,Terminal Capão Raso - 203 - Santa Cândida / Capão Raso,Terminal Capão Raso 203 - Santa Cândida / Capão Raso (Sentido Santa Cândida),-25.491755433148,-49.293489668088,,,0,14497,,
26200,104509,Terminal Campina do Siqueira - 303 - Centenário / Campo Comprido,Terminal Campina do Siqueira - 303 - Centenário / Campo Comprido (Sentido Centenário).,-25.436113831389,-49.307527818046,,,0,14506,,
26201,102026,Praça Rui Barbosa - 165 - Universidades - 180 - Água Verde/Abranches - 285 - Juvevê/Água Verde,165 - Universidades (sentido Raquel Prado) 180 - Água Verde / Abranches (Sentido Abranches) 285 - Juvevê / Água Verde (Sentido Juvevê),-25.436527028414,-49.272802383714,,,0,,,
26202,102014,Praça Rui Barbosa - 360 - Novena,Praça Rui Barbosa 360-Novena.,-25.435377754163,-49.273891360574,,,0,,,
26203,105601,Terminal Oficinas - 303 - Centenário / Campo Comprido,Terminal Oficinas - Sentido Centenário,-25.4511728,-49.2152244,,,0,14481,,
26204,105602,Terminal Oficinas - 303 - Centenário / Campo Comprido,Terminal Oficinas - Sentido Campo Comprido,-25.451939302546,-49.214773788885,,,0,14481,,
26207,109116,Terminal Capão da Imbuia - 304 - Pinhais / Campo Comprido,Terminal Capão da Imbuia - Pinhais,-25.440297515343,-49.22097431213,,,0,14478,,
26208,109120,Terminal Bairro Alto - 340 - Detran/Bairro Alto - 307 - Bairro Alto/Santa Felicidade,Terminal Bairro Alto - 340 - Detran/Bairro Alto ( Sentido Detran) - 307 - Bairro Alto/Santa Felicidade (Sentido Santa Felicidade),-25.41319,-49.20581,,,0,14476,,
26209,104002,Terminal Bairro Alto - 374 - Hugo Lange,Terminal Bairro Alto 374 - Hugo Lange.,-25.41308,-49.20553,,,0,14476,,
26210,104003,Terminal Bairro Alto - 372 - Tarumã,Terminal Bairro Alto 372 - Tarumã .,-25.41303,-49.20538,,,0,14476,,
26211,104004,Terminal Bairro Alto - 341 - Bairro Alto / Santa Cândida,Terminal Bairro Alto - 341 - Bairro Alto / Santa Cândida (Sentido Santa Cândida),-25.41301,-49.20525,,,0,14476,,
26212,104005,Terminal Bairro Alto - 342 - Bairro Alto / Boa Vista,Terminal Bairro Alto - 342 - Bairro Alto / Boa Vista (Sentido Boa Vista).,-25.41291,-49.20507,,,0,14476,,
26214,104013,Terminal Bairro Alto - 343 - Paraíso,Terminal Bairro Alto 343 - Paraíso.,-25.41306,-49.20572,,,0,14476,,
26215,109118,Terminal Capão da Imbuia - 304 - Pinhais / Campo Comprido,Terminal Capão da Imbuia - Campo Comprido,-25.440023814986,-49.221371279064,,,0,14478,,
26216,104011,Terminal Bairro Alto - 371 - Higienópolis,Terminal Bairro Alto 371 - Higienópolis.,-25.41299,-49.20551,,,0,14476,,
26217,104009,Terminal Bairro Alto - 375 - Sagrado Coração,Terminal Bairro Alto 375 - Sagrado Coração.,-25.41292,-49.20531,,,0,14476,,
26218,104010,Terminal Bairro Alto - 373 - Alto Tarumã,Terminal Bairro Alto 373 - Alto Tarumã.,-25.41296,-49.20538,,,0,14476,,
26221,104006,Terminal Bairro Alto - 030 - Interbairros III,Terminal Bairro Alto -030 - Interbairros III (Sentido Santa Cândida).,-25.41282,-49.20506,,,0,14476,,
26222,104001,Terminal Bairro Alto - 030 - Interbairros III,Terminal Bairro Alto - 030 - Interbairros III (Sentido Oficinas),-25.41314,-49.20568,,,0,14476,,
26223,109117,Terminal Capão da Imbuia - 023 - Inter 2 (Anti-Horário),Terminal Capão da Imbuia -023 - Inter 2 (Anti-Horário) (Sentido Cabral).,-25.439724117864,-49.222056583467,,,0,14478,,
26226,120001,"Rua dos Funcionários, 152 - Cabral",Ponto de Parada 207 - Cabral / Osório (Sentido Praça Osório) 215 - Cabral / Cachoeira (Sentido Terminal Cachoeira) 218 - Tamandaré / Cabral (Sentido Tamandaré),-25.402078890163,-49.255738374231,,,0,,,
26228,104805,Terminal Capão Raso - 020 - Interbairros II (Horário),Terminal Capão Raso - 020 - Interbairros II (Horário) 027 - C.Raso/C. do Siqueira (Sentido Campina do Siqueira).,-25.492282787478,-49.293082763875,,,0,14497,,
26232,109087,Terminal Cabral - B02 - Maracanã / Cabral -607- Colombo / CIC,Terminal Cabral - Maracanã,-25.407046951015,-49.252644063181,,,0,14474,,
26233,109085,Terminal Cabral - 210- CIC/Cabral- 204 -Santa Cândida/Pinheirinho,Estação Tubo Terminal Cabral -204 -Santa Cândida/Pinheirinho (Sentido Pinheirinho ) - 210 - CIC/Cabral ( Sentido CIC),-25.406060351332,-49.252577007956,,,0,14474,,
26234,109086,Terminal Cabral - 204 - Santa Cândida / Pinheirinho - 022 - Inter 2 (Horário),Estação Tubo Terminal Cabral - 204 - Santa Cândida / Pinheirinho ( Sentido Santa Cândida) 022 - Inter 2 (Horário) (Sentido Capão da Imbuia).,-25.406600087468,-49.252187902972,,,0,14474,,
26237,109083,Terminal Cabral - 023 - Inter 2 (Anti-Horário),Terminal Cabral - 023 - Inter 2 (Anti-Horário) (Sentido Campina do Siqueira).,-25.406516459418,-49.253004182335,,,0,14474,,
26239,109092,Terminal Portão - 204 - Santa Cândida / Pinheirinho,Estação Tubo Terminal Portão - 204 - Santa Cândida / Pinheirinho (Sentido Santa Cândida) X22 - Reforço Portão (Sentido Pinheirinho).,-25.476438943166,-49.292219872519,,,0,14499,,
26240,109091,Terminal Portão - 022 - Inter 2 (Horário),Terminal Portão - 022 - Inter 2 (Horário) (Sentido Campina do Siqueira) .,-25.475997037397,-49.292383487269,,,0,14499,,
26241,109090,Terminal Portão - 204 - Santa Cândida / Pinheirinho,Estação Tubo Terminal Portão - Sentido Pinheirinho,-25.476162903589,-49.292921270176,,,0,14499,,
26242,109089,Terminal Portão - 023 - Inter 2 (Anti-Horário),Terminal Portão - 023 - Inter 2 (Anti-Horário) (Sentido Capão Raso).,-25.476420782687,-49.292804594084,,,0,14499,,
26243,109093,Terminal Capão Raso - 023 - Inter 2 (Anti-Horário) / 508-Sítio Cercado (Anti-Horário),Terminal Capão Raso - 023 - Inter 2 (Anti-Horário) (Sentido Hauer ) - 508-Sítio Cercado (Anti-Horário) ( Sentido Sitio Cercado),-25.492322735256,-49.293668155993,,,0,14497,,
26245,109094,Terminal Capão Raso - 210 - CIC/ Cabral - 606 - Ctba / Araucária,Tubo Terminal Capão Raso - Sentido CIC / Araucária,-25.491804623642,-49.29373252901,,,0,14497,,
26246,109095,Terminal Capão Raso - 022 - Inter 2 (Horário),Terminal Capão Raso -022 - Inter 2 (Horário) (Sentido Portão) -024 C.Raso/Camp. Siqueira .,-25.491786465484,-49.293088798846,,,0,14497,,
26247,109096,Terminal Capão Raso - 210 - CIC / Cabral,Terminal Capão Raso - Sentido Cabral,-25.492114522446,-49.293043201293,,,0,14497,,
26248,109097,Terminal Capão Raso - 507 - Sítio Cercado(H) - 610-S.Cercado / C.Raso,Terminal Capão Raso -507 - Sítio Cercado(H) (Sentido Guadalupe ) - 610-S.Cercado / C.Raso (Sentido Pinheirinho),-25.492386893782,-49.293011014785,,,0,14497,,
26252,105706,Terminal Pinheirinho - 204 - Santa Cândida / Pinheirinho,Terminal Pinheirinho - 204 - Santa Cândida / Pinheirinho (Sentido Santa Cândida) X22 - Reforço Portão (Sentido Portão).,-25.512983000614,-49.294504885363,,,0,14494,,
26253,105707,Terminal Pinheirinho - 507 - Sitio Cercado (Horário),Terminal Pinheirinho - 507-Sitio Cercado (Horário) (Sentido Guadalupe) 610-S.Cercado / C. Raso (Sentido C. Raso),-25.51216481452,-49.294520978617,,,0,14494,,
26254,109098,Terminal Pinheirinho - 508 - Sítio Cercado (Anti - Horário),Terminal Pinheirinho - 508 Sítio Cercado (Anti - Horário) - 610 S.Cercado/C.Raso . (Sentido Sitio Cercado),-25.512230172785,-49.295757476973,,,0,14494,,
26255,109113,Terminal Sítio Cercado - 507 - Sítio Cercado (Horário),Terminal Sítio Cercado - 507 - Sítio Cercado (Horário) (Sentido Pinheirinho) 520 - LD Osternack/S. Cercado (Sentido Tubo Osternack) 527 - Pinheirinho / Boqueirão (Sentido Pinheirinho) 610 - S. Cercado / C. Raso (Sentido C. Raso).,-25.534079003482,-49.267110219499,,,0,14492,,
26257,109111,Terminal Sítio Cercado - 508 - Sítio Cercado (Anti-horário),Terminal Sítio Cercado - 546 - S. Cercado / Boqueirão (Sentido Boqueirão).,-25.534671959625,-49.268448641798,,,0,14492,,
26261,109105,Terminal Carmo - 505 - Boqueirão/C. Cívico / 508 - Sítio Cercado (AH),Estação Tubo Terminal Carmo - Sentido Terminal Guadalupe / Centro Cívico,-25.50165848872,-49.237661537426,,,0,14485,,
26262,109106,Terminal Carmo - 505 - Boqueirão/C. Cívico / 507 - Sitio Cercado (H),Estação Tubo Terminal Carmo - Sentido Boqueirão/ Sitio Cercado (H),-25.500857171801,-49.237654831903,,,0,14485,,
26263,105802,Terminal Portão - 203 - Sta. Cândida/C. Raso / 603-Pinheirinho/R. Barbosa / 602-Circular Sul (AH),Terminal Portão - 203 - Sta. Cândida/C. Raso (Sentido Capão Raso) 603-Pinheirinho/R. Barbosa (Sentido Pinheirinho) 602-Circular Sul (AH) (Sentido Pinheirinho) X20- Portão/Sítio Cercado (Sentido Sítio Cercado).,-25.476410212996,-49.292681397146,,,0,14499,,
26264,109110,Terminal Hauer - 505 - Boqueirão / Centro Cívico,Estação Tubo Terminal Hauer - Sentido Centro Cívico,-25.481214801157,-49.246965557347,,,0,14487,,
26266,109109,Terminal Hauer - 023 - Inter 2 (Anti-Horário),Terminal Hauer - 023 - Inter 2 (Anti-Horário) (Sentido Capão da Imbuia).,-25.481429086091,-49.246864974509,,,0,14487,,
26267,109108,Terminal Hauer - 022 - Inter 2 (Horário),Terminal Hauer - 022 - Inter 2 (Horário) (Sentido Capão Raso).,-25.48144966711,-49.247394710789,,,0,14487,,
26268,109107,Terminal Hauer - 505 - Boqueirão / Centro Cívico,Terminal Hauer -Sentido Boqueirão,-25.48239154761,-49.246932029734,,,0,14487,,
26269,109115,Terminal Centenário - 305 - Centenário,Terminal Centenário - 305 - Centenário (Sentido Marechal Deodoro).,-25.468726293283,-49.207982188405,,,0,14483,,
26276,109119,Terminal Capão da Imbuia - 022 - Inter 2 (Horário),Terminal Capão da Imbuia - 022 - Inter 2 (Horário) (Sentido Hauer).,-25.439824079466,-49.222280920335,,,0,14478,,
26281,109121,Terminal Santa Felicidade - 307 - Santa Felicidade/ Bairro Alto,Terminal Santa Felicidade - 307 - Santa Felicidade/ Bairro Alto (Sentido Bairro Alto) - 902 LD Sta Felicidade.,-25.401281017147,-49.329734107491,,,0,14510,,
26282,109124,Terminal Campina do Siqueira - 304 - Pinhais / Campo Comprido,Terminal Campina do Siqueira - CIC Norte,-25.435742045833,-49.307359327009,,,0,14506,,
26283,109167,Terminal Campina do Siqueira - 023 - Inter 2 (Anti-Horário) - 024 - C.Raso - Camp.Siqueira,Terminal Campina do Siqueira -023 - Inter 2 (Anti-Horário) (Sentido Portão) -024 - C.Raso /Camp.Siqueira.,-25.435855889927,-49.307661075523,,,0,14506,,
26284,109125,Terminal Campina do Siqueira - 022 - Inter 2 (Horário),Terminal Campina do Siqueira - 022 - Inter 2 (Horário) (Sentido Cabral).,-25.436224065833,-49.307513554027,,,0,14506,,
26285,109126,Terminal Campina do Siqueira - 304 - Pinhais / Campo Comprido,Terminal Campina do Siqueira - Pinhais,-25.436093266627,-49.307176936796,,,0,14506,,
26286,109128,Terminal Campo Comprido - 304 - Pinhais / Campo Comprido,Terminal Campo Comprido 304 - Pinhais / C.Comprido (Sentido CIC Norte),-25.441406264539,-49.347205421627,,,0,14508,,
26287,109129,Terminal Campo Comprido - 304 - Pinhais / Campo Comprido,Terminal Campo Comprido 304-Pinhais / Campo Comprido (Sentido Pinhais),-25.441807121752,-49.347099474371,,,0,14508,,
26294,104804,Terminal Capão Raso - 502 - Circular Sul (H) - 603-Pinheirinho,Terminal Capão Raso 502 - Circular Sul (H) (Sentido Hauer) 603-Pinheirinho (Sentido Praça Rui Barbosa) X11 - Sítio Cercado / C. Raso.,-25.492346795691,-49.293421025236,,,0,14497,,
26295,104803,Terminal Capão Raso - 602 - Circular Sul (AH) / 603-Pinheirinho/Rui Barbosa,Terminal Capão Raso (Sentido Pinheirinho / Sitio Cercado),-25.492092582379,-49.293635601957,,,0,14497,,
26296,105701,Terminal Pinheirinho - 603 - Pinheirinho,Terminal Pinheirinho - 603-Pinheirinho (Sentido Praça Rui Barbosa).,-25.512251957076,-49.295580139565,,,0,14494,,
26297,105703,Terminal Pinheirinho - 602 - Circular Sul (Anti-Horário),Terminal Pinheirinho - 602-Circular Sul (Anti-Horário) (Sentido Sitio Cercado).,-25.51231489462,-49.295636465954,,,0,14494,,
26298,105704,Terminal Pinheirinho - 550 - Pinheirinho/C.Gomes,Terminal Pinheirinho 550 - Pinheirinho / C. Gomes (sentido Praça Carlos Gomes),-25.512104886599,-49.294667234918,,,0,14494,,
26314,101001,Praça Tiradentes - 870 - São Braz,Praça Tiradentes 870 - São Braz 889 - Mad. São Bráz (Sentido Pça. Rui Barbosa),-25.42968875223,-49.272649319118,,,0,,,
26328,101003,Praça Tiradentes - 875 - Bigorrilho,Praça Tiradentes 875 - Bigorrilho.,-25.430029090182,-49.2724950921,,,0,,,
26329,101002,Praça Tiradentes - 865 - Jd Esplanada,Praça Tiradentes 865 - Jd Esplanada.,-25.42990555125,-49.272544712967,,,0,,,
26332,101010,Praça Tiradentes - 380 - Detran/ Vicente Machado,Praça Tiradentes - Detran,-25.430089648435,-49.271423549599,,,0,,,
26333,101009,Praça Tiradentes - 366 - Itupava/ Hospital Militar,Praça Tiradentes -366 - Itupava/ Hospital Militar (Sentido Itupava).,-25.430115082892,-49.271544249004,,,0,,,
26334,101005,Praça Tiradentes - 207 - Cabral/ Osório - 260 - Mal.Hermes/Sta.Efigênia,207 - Cabral/ Osório 260 - Mal.Hermes/Sta.Efigênia,-25.430195019723,-49.271926463789,,,0,,,
26335,103202,Praça Carlos Gomes - 370-Rua XV / Barigui,Praça Carlos Gomes - 370 - Rua XV / Barigui (sentido Rua XV),-25.432998831087,-49.270719469732,,,0,,,
26336,103203,Praça Carlos Gomes - 372 - Tarumã,Praça Carlos Gomes 372 - Tarumã 389 - Madrugueiro Tarumã / Augusta (Sentido Bairro Alto).,-25.432935852023,-49.270525009579,,,0,,,
26337,101006,Praça Tiradentes - 265 - Ahú/ Los Angeles,265 - Ahú/Los Angeles (sentido Ahú),-25.430175641103,-49.271831245369,,,0,,,
26338,103205,Praça Carlos Gomes - 373 - Alto Tarumã,Praça Carlos Gomes 373 - Alto Tarumã.,-25.432889828841,-49.270401627964,,,0,,,
26339,101007,Praça Tiradentes - 180 - Água Verde/ Abranches,Praça Tiradentes - Abranches,-25.430153840151,-49.271732003635,,,0,,,
26340,103207,Praça Carlos Gomes - 463-Solitude,Praça Carlos Gomes - 463 - Solitude,-25.432814738347,-49.270181686825,,,0,,,
26341,101008,Praça Tiradentes - 285 - Juvevê/ Água Verde,Praça Tiradentes - Juvevê,-25.43013930618,-49.271632761902,,,0,,,
26342,103206,Praça Carlos Gomes - 386-Cajuru,Praça Carlos Gomes 386 - Cajuru.,-25.432848650189,-49.27027556414,,,0,,,
26343,101012,"Praça Tiradentes, 70 - Centro",Ponto de Parada 150 - Canal da Música / Vista Alegre (Sentido Vista Alegre),-25.429458629939,-49.271108390039,,,0,,,
26344,101015,Praça Tiradentes - 464 - A.Munhoz / J.Botânico,464 - A.Munhoz / J. Botânico,-25.429167948522,-49.271203608459,,,0,,,
26345,101014,Praça Tiradentes - 967 - Júlio Graf,Praça Tiradentes 967 - Júlio Graf .,-25.429263631233,-49.271171421951,,,0,,,
26346,101013,Praça Tiradentes - 965 - São Bernardo,Praça Tiradentes 965 - São Bernardo .,-25.429343568629,-49.271137894339,,,0,,,
26347,103201,Praça Carlos Gomes - 365 - Jd. Social / Batel,Praça Carlos Gomes 365 - Jardim Social (Sentido Jardim Social).,-25.433020631525,-49.27076640839,,,0,,,
26348,101017,Praça Tiradentes - 280 - Nossa Senhora de Nazaré,Praça Tiradentes 280 - N. Sra. de Nazaré.,-25.428906334648,-49.271190197414,,,0,,,
26349,101018,Praça Tiradentes - 181 - Mateus Leme,Praça Tiradentes - 181 - Mateus Leme (Sentido Mateus Leme).,-25.428752515113,-49.271145940966,,,0,,,
26350,105502,Terminal Hauer - 502 - Circular Sul (H) - 503-Boqueirão,Terminal Hauer 502 - Circular Sul (H) (sentido Boqueirão) 503 - Boqueirão (sentido Boqueirão),-25.481479933039,-49.247275209369,,,0,14487,,
26351,101020,Praça Tiradentes - 183 - Jardim Chaparral,Praça Tiradentes 183 - Jd. Chaparral.,-25.428609596,-49.271115095562,,,0,,,
26352,103501,Praça Zacarias - 380-Detran/Vicente Machado,Praça Zacarias 380 - Detran/Vicente Machado (Sentido Vicente Machado),-25.432663065592,-49.272776724047,,,0,,,
26353,101021,Praça Tiradentes - 182 - Abranches,Praça Tiradentes 182 -Abranches.,-25.42848121089,-49.271081567949,,,0,,,
26354,101161,Trav. Moreira Garcês - 205 - Barreirinha,Trav. Moreira Garcês 205- Barreirinha.,-25.42843881955,-49.270883084482,,,0,,,
26355,103503,Praça Zacarias - 370-Rua XV / Barigui - 360-Novena - 365-Jardim Social/Batel,Praça Zacarias - 360 - Novena (Sentido Rui Barbosa) 365 - Jardim Social/Batel (Sentido Batel) 370 - Rua XV / Barigui (Sentido Barigui / Paulo Gorski),-25.432498350589,-49.272501797623,,,0,,,
26356,101162,Trav. Moreira Garcês - 274 - Santa Gema,Trav. Moreira Garcês 274 - Santa Gema.,-25.428573260605,-49.270704717583,,,0,,,
26357,103502,Praça Zacarias - 366 - Itupava / Hospital Militar - 393 - C. Imbuia / Parque Barigui,Praça Zacarias 366 - Itupava / Hospital Militar (Sentido Hospital Militar) 393 - C. Imbuia / Parque Barigui (Sentido Parque Barigui) 389 - Mad. Tarumã / Augusta (Sentido Vila Sandra),-25.43257223014,-49.272639931387,,,0,,,
26358,101163,Trav. Moreira Garcês - 270 - Fernando de Noronha,Trav. Moreira Garcês 270 - Fernando de Noronha.,-25.428624130155,-49.270649732298,,,0,,,
26359,101164,Trav. Moreira Garcês -271 - Laranjeiras,Trav. Moreira Garcês 271 - Laranjeiras.,-25.428619285437,-49.27068594212,,,0,,,
26360,103506,Praça Santos Andrade - 001 - Circular Centro (Horário),Praça Santos Andrade 001 - Circular Centro (Horário).,-25.42861777034,-49.267110557502,,,0,,,
26361,103404,Praça Santos Andrade - 360 - Novena - 361 - Augusto Stresser,Praça Santos Andrade 360 - Novena (sentido Santuário N. Sra do Perpétuo Socorro) 361 - Augusto Stresser.,-25.428513608854,-49.26684501881,,,0,,,
26362,103403,Praça Santos Andrade - 374 - Hugo Lange,Praça Santos Andrade 374 - Hugo Lange.,-25.42845547217,-49.266673357433,,,0,,,
26363,103405,Praça Santos Andrade - 341 - Higienópolis,Praça Santos Andrade 341 - Higienópolis.,-25.428382801276,-49.266501696056,,,0,,,
26364,101167,Trav. Moreira Garcês - 266 - Estribo Ahú,Trav. Moreira Garcês 266 - Estribo Ahú.,-25.428656831997,-49.270628274626,,,0,,,
26365,101166,Trav. Moreira Garcês - 272 - Paineiras,Trav. Moreira Garcês 272 - Paineiras.,-25.428693167367,-49.270588041491,,,0,,,
26369,103406,Praça Santos Andrade - 375 - Sagrado Coração,Praça Santos Andrade 375 - Sagrado Coração.,-25.428323538349,-49.266369209297,,,0,,,
26370,103407,Praça Santos Andrade - 380 - Detran/Vicente Machado - 366 - Itupava/Hospital Militar,Praça Santos Andrade - Detran / Itupava,-25.428277513404,-49.266261920936,,,0,,,
26371,103402,Praça Santos Andrade - 393 - Capão da Imbuia / Parque Barigui,Praça Santos Andrade - Capão da Imbuia,-25.428599687647,-49.267047808178,,,0,,,
26372,102241,Rua José Loureiro - 464 - A. Munhoz / Jd. Botânico,Rua José Loureiro - 464 - A.Munhoz / Jd. Botânico (Sentido Jd. Botânico),-25.43354020745,-49.272350252813,,,0,,,
26373,103242,Rua José Loureiro - 160-Jd. Mercês / Guanabara,Ponto de Parada Rua José Loureiro - 160-Jd.Mercês / Guanabara (Sentido PUC),-25.433505084673,-49.272244305557,,,0,,,
26374,103243,Rua José Loureiro - 175-Bom Retiro / PUC,Rua José Loureiro - 175 - Bom Retiro / PUC (Sentido PUC),-25.433406983068,-49.272047163195,,,0,,,
26375,101011,"Praça Tiradentes, 421 - Centro",Ponto de Parada 001 - Circular Centro (Horário) 289 - Mad. Jd. Graziela ( Sentido Jd. Graziela) 360 - Novena (Sentido Novena) 393 - C. Imbuia / Parque Barigui (Sentido Capão da Imbuia),-25.430059369312,-49.271253229326,,,0,,,
